id,name,latitude,longitude,google_id,city,rating,address,n_voters
1,Nautilus Club s.r.l,41.1907661,16.6502908,ChIJE5KJzmT7RxMRGkW2_2W96MA,Giovinazzo,3.8,"400, 70054 Giovinazzo BA, Italy",108.0
2,Verdelago,41.16642119999999,16.7041664,ChIJjxeNpKD6RxMRacNmeWgC-Fo,Giovinazzo,3.8,"Strada Statale 16 bis, Km 787,600, 70054 Giovinazzo BA, Italy",13.0
3,Villa Casale,41.0013667,16.912111,ChIJk3vXJ57qRxMRyP0QHPIawQc,Casamassima,3.1,"70010 Casamassima, Metropolitan City of Bari, Italy",274.0
4,BEFORE Lounge Bar,41.1035507,16.8868619,ChIJIQ8bOUroRxMR9tI0zgYoPko,Bari,3.1,"Via Giovanni Amendola, 195, 70126 Bari BA, Italy",12.0
5,PLATFORM CLUB,40.9966681,16.7708633,ChIJlw6hcQqTRxMRREM2GYTCJnM,Sannicandro di Bari,4.3,"SP17, km 9, 70028 Sannicandro di Bari BA, Italy",3.0
6,BLU Longe Cafe - Disco Club,41.07573170000001,16.8850499,ChIJF4AbL_3pRxMRbwxnyVK4SrA,Bari,0.0,"Via Giuseppe Fanelli, 234, 70125 Bari BA, Italy",0.0
7,12ZER03 | Discoclub,41.1029071,16.8839151,ChIJjwtldUvoRxMR7HNgUWESIhI,Bari,3.9,"Via Colajanni Napoleone, 37, 70125 Bari BA, Italy",245.0
8,Elisabettacalda,41.0680314,16.9338274,ChIJXTStnGLDRxMRiMbZATN8vE8,Triggiano,5.0,"Via Martiri di Via Fani, 3, 70019 Triggiano BA, Italy",2.0
9,Oasi Mediterranea,41.164126,16.6661918,ChIJXSMJB5DwRxMR35o95e0Oags,Giovinazzo,3.8,"70054 Giovinazzo, Metropolitan City of Bari, Italy",13.0
10,Demodé Club,41.0714638,16.8233232,ChIJBwuO5lXpRxMRUbEtWy_jb_s,Modugno,4.1,"Via dei Cedri, 14, 70026 Modugno BA, Italy",263.0
11,The Stone club,40.9968355,16.7709342,ChIJhS4UdyqTRxMRnRe2hvZabUM,Sannicandro di Bari,4.7,"SP17 km. 9, 70028 Sannicandro di Bari BA, Italy",7.0
12,Kepler Club,41.0872495,16.8956075,ChIJxaCrdn76RxMRfBTbFQv3PiU,Bari,3.2,"Via Caduti del Lavoro, 196, 70126 Bari BA, Italy",43.0
13,CELLAR DISCO PRIVE',41.1223375,16.8665603,ChIJZbLFrarpRxMROqB8AZz7yqg,Bari,5.0,"Via Marchese di Montrone, 119, 70122 Bari BA, Italy",1.0
14,Mulata Bari,41.0860032,16.87949,ChIJtUB7j7zpRxMR5MvbSvACgOk,Bari,4.1,"Str. la Grava, 12/14,16, 70125 Bari BA, Italy",419.0
15,Project Management,41.1105575,16.8663428,ChIJx2A7y1foRxMR06E0uKGSEFY,Bari,0.0,"Via Nicola de Gemmis, 5, 70124 Bari BA, Italy",0.0
16,Cairoli54,41.1241912,16.8671389,ChIJR9C9LIPpRxMRNLRhtnjFaS4,Bari,0.0,"Via Benedetto Cairoli, 54, 70122 Bari BA, Italy",0.0
17,Nuova oasi club,41.1665989,16.6658192,ChIJyWXpOuDxRxMRBS0YVUwyY3I,Giovinazzo,2.7,"Unnamed Road, 70054, Giovinazzo BA, Italy",6.0
18,Fluxus Music-Art Club,41.11696449999999,16.8500253,ChIJh5duCe_oRxMRyKBPaFmsBUE,Bari,4.2,"Strada S. Giorgio Martire, 9c, 70124 Bari BA, Italy",18.0
19,Scicchetteria,41.0430989,16.8835333,ChIJ00VGYPXrRxMRE4aR4HWzsYE,Valenzano,5.0,"Corso Aldo Moro, 31, 70010 Valenzano BA, Italy",1.0
20,Fix it Culture,41.10287539999999,16.8839786,ChIJkYIBW0XoRxMRzdo56LWHNGQ,Bari,4.1,"Viale Luigi Einaudi, 60, 70125 Bari BA, Italy",968.0
21,Prisma Vision Club,41.180844,16.6871062,ChIJs3Qaonz7RxMRKK1RhLBsets,Giovinazzo,4.6,"Via Bari, km 754, 70054 Giovinazzo BA, Italy",29.0
22,Mamas Beach,41.1746007,16.7062068,ChIJQ4-8_BX7RxMRQ-RgVM7GrsM,Giovinazzo,3.0,"70054 San Matteo, Metropolitan City of Bari, Italy",40.0
23,Prosit,41.096236,16.8536256,ChIJa5WiTgXpRxMRr_vCmg25flE,Bari,4.1,"Via Salvatore Matarrese, 70124 Bari BA, Italy",15.0
24,Settantacinque,41.1012112,16.8655572,ChIJDUGUjqrpRxMRowHkUmtVuGg,Bari,3.7,"V.le John F. Kennedy, 77, 70124 Bari BA, Italy",3.0
25,audio factory,41.1666923,16.6654019,ChIJ3z2GCYzxRxMRNJmIRDUlaBA,Giovinazzo,0.0,"Nuova oasi club, Unnamed Road, 70054, 70054 Bari BA, Italy",0.0
26,Murek na promenadzie,41.1298343,16.8718491,ChIJ-z_Hws_pRxMRYAjDVLDQaVs,Bari,4.8,"Lungomare Imperatore Augusto, 70123 Bari BA, Italy",5.0
27,The Cellar Club,41.1223907,16.866352,ChIJP8gLmvLpRxMR1dSi9Mz_KWs,Bari,4.7,"Via Principe Amedeo, 154A, Via Marchese di Montrone, 121, 70122 Bari BA, Italy",6.0
28,Villa Rotondo,41.0915199,16.8693517,ChIJ40vIE6bpRxMRICYraPPr4fg,Bari,3.2,"Corso Alcide De Gasperi, Str. Vicinale Carducci, 431, 70125 Bari BA, Italy",602.0
29,Riva Beach Torre Quetta,41.1130849,16.9143819,ChIJA_Getp_CRxMRVnd9ZZ_qm90,Bari,4.0,"Torre Quetta, 70126 Bari BA, Italy",699.0
30,Dentro Bari,41.1214127,16.8717634,ChIJTamiN0zpRxMRpMkRYji5DUY,Bari,0.0,"Via Antonio Beatillo, 20, 70121 Bari BA, Italy",0.0
31,Checkpoint Charlie,41.1243641,16.8742261,ChIJZSCpVmboRxMRb0T_Nzc7KLw,Bari,4.6,"Via Giuseppe Bozzi, 42, 70121 Bari BA, Italy",8.0
32,Chiascia San Barbato,41.10351319999999,16.6874558,ChIJ_0SBeprxRxMRGsJQuGCc1fQ,Bitonto,2.0,"Piazza Carmine Sylos, 14, 70032 Bitonto BA, Italy",1.0
33,M.d.B Eventi Music Planner for Wedding,41.1075229,16.7019444,ChIJHYjKA-DxRxMRBsz500RDxNo,Bitonto,5.0,"Via Ugo la Malfa, 70032 Bitonto BA, Italy",2.0
34,Pascia Beach Bar,41.1919705,16.6606026,ChIJJZDTxGn6RxMRUq-cG-dsCo4,Giovinazzo,3.8,"Lungomare Marina Italiana, 70054 Giovinazzo BA, Italy",394.0
35,Duke Jazz Club,41.1085621,16.8861989,ChIJB_YCRqbpRxMRBhi4ppR9VAI,Bari,4.8,"Via Pietro Giannone, 16a, 70126 Bari BA, Italy",215.0
36,Summit Club Bari,41.10774079999999,16.8774982,ChIJcYXVIk7oRxMRmojnUyOaxQ0,Bari,4.6,"Via Giuseppe Re David, 199, 70126 Bari BA, Italy",167.0
37,Club26,40.8155425,16.4205603,ChIJ2X5fj_V7OBMRg2G-aion4Z4,Gravina in Puglia,4.0,"Via Padova, 26, 70024 Gravina in Puglia BA, Italy",94.0
38,Pianeta disco club,40.6754211,16.5842291,ChIJT8nmnJh_RxMRg-NWJF26QC0,Matera,0.0,"Piazzetta Tre Torri, 75100 Matera MT, Italy",0.0
39,Nuclè,40.8205448,16.6179765,ChIJj6RR54WGRxMR-HbRjAUfUro,Altamura,4.5,"C.da Masseria Carvella, 70022 Altamura BA, Italy",30.0
40,"Ex discoteca ""Pantheon""",40.8764355,16.6388851,ChIJZTV2qqiPRxMRJrnS6sbf69A,Altamura,0.0,"VJGQ+HH, 70022 Altamura BA, Italy",0.0
41,Kumanà Club,40.8252013,16.5675332,ChIJW6WV9LKHRxMRpIDZkooDQ-4,Altamura,3.6,"70022 Altamura, Metropolitan City of Bari, Italy",23.0
42,Villa Giglio,40.8399543,16.4018865,ChIJTxskL1l7OBMRAvaMbyDPoQ0,Gravina in Puglia,5.0,"70024 Gravina in Puglia, Metropolitan City of Bari, Italy",2.0
43,Hi Club,40.8155164,16.4232336,ChIJa--IBvZ7OBMR8HR264gWd2c,Gravina in Puglia,5.0,"Via Reggio Calabria, 15, 70024 Gravina in Puglia BA, Italy",1.0
44,Gardenia Club,40.7196659,16.5813206,ChIJoWbExFWBRxMRoajH2kMGJaU,Matera,0.0,"Via Germania, 10/0, 75100 Venusio MT, Italy",0.0
45,ROSETTA JAZZ CLUB,40.6758144,16.6000494,ChIJZ-pd7pB_RxMR6bl8GtdJ42k,Matera,4.8,"CENTRO COMMERCIALE LE BOTTEGHE, Recinto G. Marconi, 75100 Matera MT, Italy",13.0
46,Tavernetta25,40.7954861,16.7567198,ChIJRxooAHmbRxMRSluM2b8k-4s,Santeramo in Colle,0.0,"Piazza Garibaldi, 12, 70029 Santeramo In Colle BA, Italy",0.0
47,Csoa Fucine dell'Eco,40.66836,16.6095778,ChIJy1V0ad9-RxMRfd33paXMWkc,Matera,3.5,"Via D'Addozio, 102, 75100 Matera MT, Italy",6.0
48,XO' Music & Lounge Bar,40.8277824,16.567332,ChIJy0qO4w6HRxMR3Mh6_Ky0oAs,Altamura,3.0,"Via Eugenio Montale, 24, 70022 Altamura BA, Italy",8.0
49,tortuga zona paip,40.6732232,16.5733808,ChIJhwLtHlN-RxMR11tPxU1RDm0,Matera,5.0,"Via della Scienza, 75100 Matera MT, Italy",1.0
50,Divinae Follie,41.2532906,16.4698027,ChIJB2cZJuwGOBMRdf6RB4HRAOc,Bisceglie,3.8,"Viale Ponte Lama, 9, 76011 Bisceglie BT, Italy",189.0
51,Sbuembiamoci insieme,41.2346229,16.4980515,ChIJ2dhvOusHOBMRP1MRmL-4wYM,Bisceglie,0.0,"Via Sant'Andrea, 76011 Bisceglie BT, Italy",0.0
52,Idol Club,41.2276165,16.5329046,ChIJAYxL7TYHOBMRT6-qYIU5jnM,Bisceglie,3.0,"Via Copenaghen, 2, 76011 Ampliamento Zona Artigianale Est BT, Italy",1.0
53,VILLA ANGY - VILLA CON PISCINA PER EVENTI MUSICALI PRIVATI - BISCEGLIE,41.2212755,16.5065942,ChIJuV0geroHOBMR0B83FI7g7oA,Bisceglie,4.0,"Via Ruvo, 131, 76011 Bisceglie BT, Italy",1.0
54,Jubileebeach,41.2267875,16.5459682,ChIJ-6Ep26P5RxMRF_AXyh58Sw8,Molfetta,4.1,"SS16 Adriatica, 70056 Molfetta BA, Italy",8.0
55,Fico Club,41.2317478,16.5201269,ChIJaYwMg4EHOBMRg5jHl4VFSOo,Bisceglie,3.9,"Via M.R. Imbriani, 340, 76011 Bisceglie BT, Italy",18.0
56,Chiascia S. Barbato Di Pasculli Domenico A.,41.0661926,16.6113281,ChIJ4-UJZWH0RxMRkRH9mp3xaAg,Bitonto,4.4,"14 Via Sylos Senatore C Bitonto, 70032 Bitonto BA, Italy",67.0
57,"""La Mancha"" ARCI circle | Ruvo di Puglia",41.116722,16.4814786,ChIJ90w3qdQLOBMRNPZQ1urp4YU,Ruvo di Puglia,4.8,"Via Guglielmo Oberdan, 49, 70037 Ruvo di Puglia BA, Italy",4.0
58,Boulares le club,41.2774339,16.4230033,ChIJo5itsCQFOBMRqAh1U8EGFQ0,Trani,2.5,"Via Giustina Rocca, 2, 76125 Trani BT, Italy",2.0
59,Bloom Beach Bar,41.1976579,16.6184387,ChIJ103-vfL5RxMRguFgBxTRSo4,Molfetta,3.2,"Str. Vicinale Torre Rotonda, 26, 70056 Molfetta BA, Italy",67.0
60,Il vecchio e il mare,41.2805779,16.4224295,ChIJKxQQHAwEOBMRqiIr_9r1BvM,Trani,4.2,"Via Tiepolo, Sottoportico Fortino, SN, 76125 Trani BT, Italy",1777.0
61,Parco San Giacomo,41.2135917,16.5732754,ChIJzXqaUen5RxMR5Bq4LAqD87A,Molfetta,3.8,"km 776, SS16 Adriatica, 100, 70056 Molfetta BA, Italy",296.0
62,Fever American Bar,41.2766862,16.4191375,ChIJPYlemxIEOBMROPRf92dEl4w,Trani,5.0,"Via Attilio Lagalante, 5, 76125 Trani BT, Italy",10.0
63,Afrodite Club Prive Puglia Molfetta,41.1850407,16.5845313,ChIJRfT9eCD5RxMRRRoLdwwvnqQ,Molfetta,3.7,"Via Terlizzi, 70056 Molfetta BA, Italy",22.0
64,Eremo Club,41.1931295,16.6292811,ChIJKbJ0ubj5RxMRIkDWC6TIdjY,Molfetta,4.4,"S.P. Molfetta, Via Giovinazzo, Km 779, 70056 Molfetta BA, Italy",204.0
65,DF THEATRE,41.2532906,16.4698027,ChIJiXHolZgHOBMRpsa2RauJdw4,Bisceglie,4.6,"Viale Ponte Lama, 9, 76011 Bisceglie BT, Italy",5.0
66,Blanka,41.2798197,16.416167,ChIJT_SoAqIFOBMRj0ptdr7CdH4,Trani,0.0,"Via Rodunto, 2, 76125 Trani BT, Italy",0.0
67,Al Calì,41.1056285,16.6826061,ChIJd7Yu-pvxRxMR3BVX6LoVOTc,Bitonto,0.0,"70032 Bitonto, Metropolitan City of Bari, Italy",0.0
68,Piper Lounge Bar Bari - Eventi a Tema - DJ Set,41.167701,16.7421067,ChIJfx1avuPlRxMR85gv8r_pJcA,Bari,3.7,"Lungomare Cristoforo Colombo, 260/c, 70127 Bari BA, Italy",337.0
69,Casa Del Disco,41.1534978,16.4123939,ChIJBWq4nusOOBMReoU6hcfmWzo,Corato,0.0,"Via Duomo, 11, 70033 Corato BA, Italy",0.0
70,Masseria Il Trappeto,40.9205276,17.2921133,ChIJDXbso6pKRhMR6I412WjZwPY,Monopoli,3.9,"Contrada Cristo delle Zolle, 207, 70043 Monopoli BA, Italy",446.0
71,New Autodromo Club,40.8475285,17.1191201,ChIJi8RkwJWwRxMRqLlkJPF40ZM,Putignano,4.0,"Via Noci, 62, 70017 Putignano BA, Italy",23.0
72,Discoteca Hyper maxi disco,40.8018148,17.2496628,ChIJh0hBAemzRxMRDzS4eBQHp88,Alberobello,4.0,"SP 113, Monopoli, 70011 Alberobello BA, Italy",5.0
73,Jerbéras Club,40.829148,17.3202284,ChIJq2IhGZpMRhMR-_RUpoIgvb4,Fasano,3.6,"Viale Toledo, 4, 72015 Selva di Fasano BR, Italy",10.0
74,Bylla Bong,40.8942707,17.3792617,ChIJf7bc8BtKRhMRu7aM3-OLsFU,Monopoli,4.1,"Contrada Capitolo, 70043 Monopoli BA, Italy",288.0
75,Masseria del Turco,40.879655,17.3417801,ChIJlza6nFZKRhMRkHwCvJozERc,Monopoli,4.1,"Strada Statale 16, 215, 70043 Monopoli BA, Italy",184.0
76,Hyper discoteca,40.8016846,17.2502234,ChIJK0UiBlCzRxMRPO0joYgp53Q,Alberobello,3.7,"SP113, 70011 Alberobello BA, Italy",3.0
77,Margot Club Privè,40.838212,17.3772156,ChIJI-gAHrFORhMRmJjbETWNyfM,Fasano,4.2,"Contrada Sant' Angelo snc, 72015 Fasano BR, Italy",13.0
78,GSD Fasano calcio,40.8270911,17.3805367,ChIJl6AXmNpNRhMRH4fKm71Clv0,Fasano,5.0,"Via ex ss 16 km 860, 72015 Fasano BR, Italy",4.0
79,Q8,40.9942243,17.2041993,ChIJg1ItCufLRxMRR1haAn6nJCo,Polignano a Mare,4.3,"SS16 km 833.454, 70044 Polignano a Mare BA, Italy",2395.0
80,ShowGirls,40.843395,17.3543618,ChIJaxI-IY5LRhMR8YQTjVTkRVs,Fasano,5.0,"Via dell'Energia, 72015 Fasano BR, Italy",20.0
81,Badawï,40.7987273,17.39027,ChIJMxFhQHtPRhMRqTlesiL-Hn8,Fasano,4.4,"Contrada Salamina 00, 72015 Fasano BR, Italy",31.0
82,Timo's Club,40.8277299,17.3790846,ChIJowiFxwBMRhMRpVPEwxuCaMQ,Fasano,4.5,"Ex S.S. 16, km 860, 72015 Fasano BR, Italy",358.0
83,Golden games,40.9946424,17.2219629,ChIJgxDR4BvLRxMRiaPuwCVG0iw,Polignano a Mare,5.0,"Via Ciclopi, 70044 Polignano a Mare BA, Italy",1.0
84,CLOUD,40.8782303,17.1586612,ChIJ-8tcg9y2RxMRYl-xB1-vOVg,Castellana Grotte,3.7,"SP 237, 92, 70013 Castellana Grotte BA, Italy",126.0
85,Club Baffo3,40.832803,17.3580857,ChIJ3SuudopLRhMRUYM5FEdujDI,Fasano,0.0,"Via Nazionale Dei Trulli, Vicinanze Villa Comunale, 72015 Fasano BR, Italy",0.0
86,Rooftop,40.953327,17.3014844,ChIJrdbCxO01RhMRF_4QEZhLxyw,Monopoli,5.0,"Corso Goffredo Mameli, 13, 70043 Monopoli BA, Italy",1.0
87,Plenilunio Punta Paradiso,40.9989512,17.2108753,ChIJh8ly4-7LRxMRbrIRUEtgSrQ,Polignano a Mare,4.7,"Via S. Vito, 64, 70044 Polignano a mare BA, Italy",181.0
88,FuoriRotta,41.28900369999999,16.3883311,ChIJeyptA30FOBMR3imXPMUQ5_g,Trani,4.2,"Contrada Fontanelle, 76125 Trani BT, Italy",58.0
89,Aphelion Club,41.2888944,16.3883882,ChIJgzQcvGUFOBMR-dMr_BBVQz4,Trani,3.5,"Contrada Fontanelle, 2, 76125 Trani BT, Italy",61.0
90,TrulloAlcó,41.2432688,16.4296591,ChIJi5rgQEIFOBMRJ-4riID8ork,Trani,4.3,"76125 Trani, Province of Barletta-Andria-Trani, Italy",4.0
91,L'Invidia Club Lap Dance,41.28631,16.381324,ChIJ4R1HP3kFOBMRnTYE9WdqsdA,Trani,5.0,"Via Barletta, 162, 76125 Trani BT, Italy",3.0
92,SUARA BEACH CLUB,41.311975,16.3207332,ChIJ752fqJ0dOBMRshAzwQlcuDU,Barletta,4.0,"Litoranea di Levante, 100a, 76121 Barletta BT, Italy",13.0
93,Celius,41.3039466,16.3135433,ChIJrWiVeIccOBMRH03qS0l6IrM,Barletta,4.5,"Via Vecchia Madonna dello Sterpeto, 30, 76121 Barletta BT, Italy",2.0
94,Casa di Bovo,41.2269343,16.2986713,ChIJQdFq7n8aOBMRetaadnNo5y4,Andria,0.0,"Corso Cavour, 9, 76123 Andria BT, Italy",0.0
95,Latin Club,41.194396,16.5905122,ChIJg4x8Ns75RxMRKMBPltsyObo,Molfetta,0.0,"Via Colonnello Francesco Regina, 32, 70056 Molfetta BA, Italy",0.0
96,Casa di Zurkolo,41.15454829999999,16.4038421,ChIJpZlVACAPOBMRYiKRnayokQE,Corato,4.0,"Via Alfano, 17, 70033 Corato BA, Italy",4.0
97,Magik Park,41.2275533,16.5328122,ChIJT8pnTQIHOBMR-g9_ytNZS24,Bisceglie,3.9,"Via Copenaghen, 2, 76011 Ampliamento Zona Artigianale Est BT, Italy",615.0
98,LaCazette di Geeno,41.2270498,16.3007648,ChIJ1xEgQIAaOBMRp-1zvVId390,Andria,4.4,"Via Regina Margherita, 82, 76123 Andria BT, Italy",7.0
99,Rin'o fon,40.8158994,16.4168005,ChIJc12A5w19OBMR_1KUhXPaLFE,Gravina in Puglia,0.0,"70024 Gravina in Puglia, Metropolitan City of Bari, Italy",0.0
100,Delirio Club Privè aps,40.818995,16.94731,ChIJV4tgeTK9RxMR1VmtzLZYuc0,Putignano,4.5,"SP106, 2803, 70023 Gioia del Colle BA, Italy",103.0
101,Club 1799,40.8973139,16.8429289,ChIJMVpUR5aWRxMRLpATGeAjsGU,Acquaviva delle Fonti,4.6,"Piazza dei Martiri, 42, 70021 Acquaviva delle Fonti BA, Italy",20.0
102,PROLIGHT s.r.l.s.,40.8154856,16.9158307,ChIJIxeWcLqjRxMRVgM_xdwmBdg,Gioia del Colle,5.0,"Provinciale per Acquaviva, 2056, 70023 Gioia del Colle BA, Italy",14.0
103,Masseria Bit Ricevimenti,40.8382535,16.9336472,ChIJ989eh7GiRxMRhUP0b78H0rA,Gioia del Colle,3.8,"Via Federico II di Svevia, 70023 Gioia del Colle BA, Italy",62.0
104,virus,40.7991072,16.9221798,ChIJI0ruaZiiRxMRlH5aSIvZZ2M,Gioia del Colle,5.0,"70023 Gioia del Colle, Metropolitan City of Bari, Italy",1.0
105,Night&Day Group,40.8960404,16.7737833,ChIJWbD-fgmRRxMRSXIofMPp7yw,Cassano delle Murge,4.6,"Via Ettore Carafa, 2H, 70020 Cassano delle Murge BA, Italy",26.0
106,Bat-Taverna,41.1213778,16.477161,ChIJgZNFJnYLOBMR-d5LoFHbGBY,Ruvo di Puglia,4.6,"Via Amendola Giorgio, 5, 70037 Ruvo di Puglia BA, Italy",12.0
107,BorgoBaía,41.1958294,16.6221482,ChIJZdxM9cL5RxMRErazebIN7OI,Molfetta,3.4,"Via Giovinazzo, km 779, 70056 Molfetta BA, Italy",5.0
108,Sfargestapasbar,41.2768468,16.4213107,ChIJ2eHB7KMFOBMRz4R6GJpir8w,Trani,4.0,"Via S. Giorgio, 40/42, 76125 Trani BT, Italy",2.0
109,La vie est belle smart loungebar,40.771208,17.2380372,ChIJjWc-uoCtRxMREsXWto-Vens,Alberobello,4.2,"Via Foggia Nuova, 70011 Alberobello BA, Italy",6.0
110,Planet Di Lobasso Angela & C. Snc,41.0760667,16.7850017,ChIJrQsxhyfsRxMRxS3hqcNtPv8,Modugno,0.0,"Strada Provinciale Modugno - Bitritto, 14, 70026 Modugno BA, Italy",0.0
111,Bar - Rosticceria - Ristorazione,41.0986616,16.864826,ChIJJS6_AKrpRxMRLQqpaWmYKr4,Bari,4.2,"V.le de Laurentis Luigi, q8, 70124 Bari BA, Italy",6.0
112,Nautilus Ristopizza,41.1127527,16.8622701,ChIJzWGdM_joRxMRqg-UzObRXvY,Bari,4.2,"V.le Quinto Ennio, 86, 70124 Bari BA, Italy",309.0
113,Festival Snack Bar,41.05762989999999,17.097126,ChIJ5f-ylojFRxMRRDK4AHeEl0Y,Mola di Bari,4.5,"Viale Unità D'Italia, 226, 70042 Mola di Bari BA, Italy",4.0
114,Ranch Natalino - RANCHO',41.0112218,16.831783,ChIJBXL0N2jrRxMRX00LXBekPtY,Bitritto,3.7,"Contrada S. Giovanni, 70020 Bitritto BA, Italy",283.0
115,Speakeasy Bari,41.1244611,16.8748122,ChIJ95yNTmboRxMR6i0ks7W8TDA,Bari,4.4,"Largo Giordano Bruno, 32/34, 70121 Bari BA, Italy",546.0
116,Cine Foto Video Disco Flash Di Nicoletta Cosola,41.1284024,16.8685169,ChIJua9KyGPoRxMRhPDuuDFgMTM,Bari,5.0,"Piazza dell'Odegitria, 1, 70122 Bari BA, Italy",2.0
117,Il Presidio del Libro di Modugno,41.0813238,16.7825874,ChIJIxTz1MfvRxMRUuErKT5oEgE,Modugno,5.0,"Via Conte Rocco Stella, 70026 Modugno BA, Italy",2.0
118,SFC_Palese,41.1543348,16.7660553,ChIJ-ZsdjHHvRxMRx6F99S-gpe0,Bari,5.0,"Via Pierino Palasciano, 20, 70128 Bari BA, Italy",2.0
119,Baba Beer End Drink,41.1048993,16.865202,ChIJVVVlYVXoRxMRdqZPbqxt-bk,Bari,0.0,"V.le del Concilio Vaticano II, 40, 70124 Bari BA, Italy",0.0
120,Mantra Beach Club,41.1808433,16.6870571,ChIJW8blmcn7RxMR309iTVKVR7w,Giovinazzo,3.5,"Via Bari, km 784/750, 70054 Giovinazzo BA, Italy",77.0
121,Garage Sound Music Club,41.1026945,16.8589674,ChIJxRdQIwLpRxMRMz8fKpP1i0Q,Bari,4.1,"Via Mauro Amoruso Manzari, 62/7b, 70124 Bari BA, Italy",284.0
122,Glubino 2 Club,41.0463203,16.9038008,ChIJOaJZM2XrRxMRHeOKBI9h8s0,Valenzano,3.6,"70010 Valenzano, Metropolitan City of Bari, Italy",66.0
123,Ballomania Asd,41.0418852,16.8215994,ChIJHzn9BezrRxMREOuoYEqfwWw,Bitritto,0.0,"Via Carlo Levi, 5, 70020 Bitetto BA, Italy",0.0
124,Bachata Bari,41.1162871,16.8602475,ChIJQQbl1YTpRxMRO63igL9iwFQ,Bari,5.0,"Via Giuseppe Capruzzi, 322, 70124 Bari BA, Italy",1.0
125,Liolà Eventi,40.753806,17.3304021,ChIJ_bCP7INSRhMR8Pu7AnB4488,Locorotondo,0.0,"Via Cavour, 165, 70010 Locorotondo BA, Italy",0.0
126,FACOLA FUN,40.6528888,17.3386478,ChIJYylwaSFVRhMRpuK9GcE6O3o,Martina Franca,4.2,"SP70, 74015, 74015 Martina Franca TA, Italy",78.0
127,Mavù,40.750938,17.3627,ChIJR1qYzXlSRhMRAEJMnXmFm5M,Locorotondo,4.2,"S.c 35, Contrada Mavugliola, 156, 70010 Locorotondo BA, Italy",191.0
128,Pensieri Vaganti,40.7053167,17.3365593,ChIJr4beMwhTRhMR4thXHeTM6ag,Martina Franca,3.4,"Via Cirillo, 22/23, 74015 Martina Franca TA, Italy",37.0
129,PANACEA EXCLUSIVE CLUB,40.6910174,17.3852092,ChIJ_T6U419RRhMRSBGBNEuso-M,Martina Franca,4.1,"Contrada Primicerio Zona I, 74015 Martina Franca TA, Italy",51.0
130,Diamantik Disco,40.702715,17.3396287,ChIJh1YSMKdTRhMRLztiimWx5KI,Martina Franca,4.1,"Via Francesco Semeraro, 3, 74015 Martina Franca TA, Italy",7.0
131,Pizzeria Ostuni,40.6960548,17.4700608,ChIJkfm7rItRRhMRA5CU7v4JrQo,Ostuni,4.0,"Contrada Pascarosa, 72017 Ostuni BR, Italy",1.0
132,EG621CD,40.7061643,17.3416056,ChIJLVNDMtFTRhMRzvfOfTQOfcM,Martina Franca,0.0,"Viale Europa, 7, 74015 Martina Franca TA, Italy",0.0
133,Torre Cafè,40.9151316,17.3438748,ChIJjYs9MIc1RhMRVp120nCnmxI,Monopoli,4.0,"Contrada Capitolo, 70043 Monopoli BA, Italy",874.0
134,Ipanema Club,41.3196027,16.2995163,ChIJK6PlCIocOBMR8s_cuR7mOG8,Barletta,3.7,"Viale Regina Elena, 100, 76121 Barletta BT, Italy",472.0
135,Off Street Garden Club Discoteca con Pizzeria,41.2818025,16.1947767,ChIJ2URejQgcOBMR4Ko1iv2BBnM,Andria,3.7,"SP124, N.2, 76121 Barletta BT, Italy",81.0
136,ITALIAN ENTERPRISE SRLS,41.2808556,16.1955514,ChIJAQQFPMwZOBMR9b1TWs8v_Lw,Andria,0.0,"SP124, 2, 76121 Barletta BT, Italy",0.0
137,Bagni Ciccio,41.3197865,16.3004983,ChIJqVX0SrcdOBMRrhzhEC_BB0Q,Barletta,4.5,"Litoranea di Levante, 92-98, 76121 Barletta BT, Italy",4.0
138,MBALU'S HOUSE,41.3200775,16.2680862,ChIJR96DjtYuqCwR-N0oBCMh4Wg,Barletta,0.0,"Via Regina Margherita, 177, 76121 Barletta BT, Italy",0.0
139,Club77,41.3202012,16.2862327,ChIJRXxjSG8cOBMRlEsnG-X5msU,Barletta,4.3,"Vico Colonna, 28, 76121 Barletta BT, Italy",149.0
140,Quota11,41.3053506,16.2835771,ChIJ9T5eKw8bOBMRcI6OmbY1Egs,Barletta,0.0,"Via Cesare Dante Cioce, 76121 Barletta BT, Italy",0.0
141,Exviri,41.216528,16.3000208,ChIJmT_fUX0QOBMRUVC2H47Ug8Q,Andria,5.0,"Viale Cimitero, 76123 Andria BT, Italy",1.0
142,Areæ Club,41.2276539,16.5330827,ChIJ0XamID4HOBMRNXe2eR2XSVA,Bisceglie,0.0,"Via M.R. Imbriani, 428, 76011 Bisceglie BT, Italy",0.0
143,Cocorico,41.3784868,16.1462309,ChIJJzFPMzsgOBMRNDiKBSOvCIo,Margherita di Savoia,0.0,"Via Garibaldi, 76016 Margherita di Savoia BT, Italy",0.0
144,Ninetythree 93,41.376978,16.1492949,ChIJU8aNqiUgOBMR1PkqZSflVvY,Margherita di Savoia,3.3,"Via Rosa Cafiero, 22, 76016 Margherita di Savoia BT, Italy",26.0
145,Ivory Club,41.3562485,16.0924205,ChIJY4a1YxQhOBMRnwTVml0lTLM,Trinitapoli,2.7,"Via Aldo Moro, 16, 76015 Trinitapoli BT, Italy",3.0
146,Catunia Brilla,41.2266773,16.2965034,ChIJQRdwgX8aOBMRFAzu3hWBvtQ,Andria,5.0,"Piazza Vittorio Emanuele II, 43, 76123 Andria BT, Italy",29.0
147,ResUrb,41.2688152,15.9060664,ChIJE5ARbcQxOBMRC3xDWnX9Dak,Cerignola,3.4,"Via Trinitapoli, 7, 71042 Cerignola FG, Italy",8.0
148,Happyness,41.264371,15.9098013,ChIJneAj4AoxOBMRGYnNqKbh5lg,Cerignola,4.4,"Viale Russia, 29, 71042 Cerignola FG, Italy",7.0
149,Nirvana Wild Tiki Bar,41.459364,15.9592956,ChIJ8S_TvtqHNxMRBtgV-ipv9uQ,Zapponeta,4.4,"Via Nettuno, SN, 71030 Zapponeta FG, Italy",96.0
150,EXOTICA FASHION CLUB,41.4596096,15.9590451,ChIJuavtudqHNxMROMZpOLYo_T8,Zapponeta,4.2,"Via Nettuno, 71030 Zapponeta FG, Italy",222.0
151,The Wall Club,40.8576112,14.2845214,ChIJ_UTTC6EJOxMRcbmZxhfmee4,Napoli,3.4,"E1, 80143 Napoli NA, Italy",150.0
152,Living,40.9064335,14.0659147,ChIJG5L-nIUaOxMRTqkFKNawb0A,Giugliano in Campania,3.9,"Via Ripuaria, 257, 80014 Varcaturo NA, Italy",280.0
153,imperial,40.8773543,14.1737156,ChIJufliJ1wPOxMRuw5tGFKa6FM,Marano di Napoli,3.6,"Via S. Gennaro, 80016 Napoli NA, Italy",9.0
154,Il Fico Eventi,40.8361328,14.2152927,ChIJHwu0PSAJOxMRi5pQho6Lkus,Napoli,4.1,"Via Torquato Tasso, 466, 80122 Napoli NA, Italy",241.0
155,Imperial club (Campo di calcio Mellino),40.86528209999999,14.193321,ChIJe9rxVLMIOxMRoFsxnVjzxcI,Napoli,4.2,"Via San Romualdo, 33, 80131 Napoli NA, Italy",70.0
156,RIVA CLUB,40.8004429,14.1746279,ChIJ-TEZfB4MOxMRdcXWurF260I,Napoli,3.9,"Via Coroglio, 154, 80124 Napoli NA, Italy",259.0
157,PEPE DINE & CLUB,40.9653497,14.2058747,ChIJ1Xsjlk8BOxMRVNEr3nZv4kk,Aversa,3.9,"Piazza Bernini, 41, 81031 Aversa CE, Italy",162.0
158,Joia Napoli,40.93033,14.2315252,ChIJqyY2x-YGOxMR5CnNEAC9ANs,Sant'Antimo,2.9,"Corso Europa, 51, 80029 Sant'Antimo NA, Italy",37.0
159,Click club,40.7996282,14.1872267,ChIJoecI2_kNOxMR4pnIxQbNwP4,Napoli,3.7,"Via Tito Lucrezio Caro, 6, 80123 Napoli NA, Italy",3.0
160,Havana Plaza,40.8420912,14.1154319,ChIJfal09DAOOxMRZY74gHZNKGo,Pozzuoli,2.9,"Via Fascione, 4, 80078 Pozzuoli NA, Italy",30.0
161,Yama Club,40.8030566,14.1747624,ChIJj1FopqAOOxMR6NFfLnRya-U,Napoli,3.3,"Via Coroglio, 122, 80124 Napoli NA, Italy",3.0
162,M & M srl,40.872013,14.2586336,ChIJpYgvZ98HOxMRKXytqKJGUc0,Napoli,5.0,"Via Ponti Rossi, 113, 80131 Napoli NA, Italy",1.0
163,DEN Club,40.8451108,14.2381945,ChIJi8asm4gJOxMRe9ZQnDvGe3E,Napoli,4.6,"Via Annibale Caccavello, 65, 80129 Napoli NA, Italy",18.0
164,Moscato E Limongello Srl,40.9051895,14.2661361,ChIJ2ZsP05gHOxMRNkgI3V21U_Q,Arzano,4.4,"Via Napoli, 270, 80022 Arzano NA, Italy",8.0
165,Troisè Events & Disco,40.8381794,14.3412575,ChIJvZh45EimOxMRhonJMFO-AR8,San Giorgio a Cremano,3.4,"via Manzoni trav, Cupa Mare, 7, 80046 San Giorgio a Cremano NA, Italy",113.0
166,Discoteca paradiso,40.841596,14.1150907,ChIJ8ahGHIAPOxMRLMwjwvWnU8o,Pozzuoli,3.5,"Via Fascione, 4, 80078 Pozzuoli NA, Italy",54.0
167,Type club,40.8566478,14.1152265,ChIJk1iOpocPOxMRpklWWRJObag,Pozzuoli,5.0,"Via Vicinale Campana, 19, 80078 Pozzuoli NA, Italy",4.0
168,Barfly Disco Restaurant,40.8241699,14.2198583,ChIJR5VX-xYJOxMRSEG6nQmP1YU,Napoli,4.3,"Via Mergellina, 6, 80122 Napoli NA, Italy",154.0
169,Disco Shine,40.8450412,14.2104553,ChIJy09BiNsIOxMRkwzxuiZjwWQ,Napoli,3.8,"Via S. Domenico, 154, 80126 Napoli NA, Italy",105.0
170,Accademia Club,40.8409494,14.2095267,ChIJXWVgH9kIOxMR7v4b7jmd3Ts,Napoli,3.8,"Via Piave, 183, 80126 Napoli NA, Italy",396.0
171,skyline vesuvio,40.823646,14.3897164,ChIJPXoZer-lOxMRXs8t-Df25c4,Ercolano,4.3,"Contrada Osservatorio, 12, 80056 Ercolano NA, Italy",9.0
172,Duel Club,40.8279626,14.155207,ChIJTSgA3IoOOxMRwvA3tHU1xzE,Pozzuoli,3.7,"Via Antiniana, 80078 Pozzuoli NA, Italy",333.0
173,Club 96 Di Lucignano Umberto E F. Lli S.A.S.,40.8349309,14.108528,ChIJHWYbjTAOOxMR8sSsgRByIf8,Pozzuoli,0.0,"Via Fascione, 4, 80078 Pozzuoli NA, Italy",0.0
174,Madras,40.88440569999999,14.1193739,ChIJL4undvQPOxMRaXn0BIoEkss,Quarto,3.0,"Via Campana, 80010 Quarto NA, Italy",14.0
175,organizzazione eventi,40.8173596,14.1614811,ChIJmc68ZxsPOxMRJL902VXzGO0,Napoli,0.0,"Via Severino Boezio, 80124 Napoli NA, Italy",0.0
176,Brass The Studios,40.8590138,14.1198584,ChIJK3PePYsPOxMRMZGOfgWOPHc,Pozzuoli,3.8,"Via Campana, 233, 80078 Pozzuoli NA, Italy",102.0
177,Whyenot,40.844985,14.2264865,ChIJWXoFaeUIOxMRhQypRh_09eA,Napoli,3.9,"Via Gino Doria, 99, 80128 Napoli NA, Italy",55.0
178,Sottovoce,40.8281017,14.0782137,ChIJRzrY7-wROxMR4VIqTnVKqvQ,Pozzuoli,3.9,"Via Lago Lucrino, 80078 Pozzuoli NA, Italy",10.0
179,Shalum Club,40.8442645,14.3388445,ChIJ-Ysk4NSnOxMRvRt4qNKOHO0,Napoli,5.0,"Via Bartolo Longo, 316 A, 80147 Napoli NA, Italy",11.0
180,La Mela,40.8368772,14.2386874,ChIJIaRtnf8IOxMR296i9rIa2qg,Napoli,0.0,"Via dei Mille, 40, 80121 Napoli NA, Italy",0.0
181,Joia Restaurant Club,40.9303862,14.2312867,ChIJG_bWj-YGOxMRWAfxlDH04Ww,Sant'Antimo,3.9,"Corso Europa, 45, 80029 Sant'Antimo NA, Italy",97.0
182,Qui Club,40.966511,14.1968807,ChIJC9ByG1cBOxMRXxNQ-bZU92Y,Lusciano,3.0,"Via Gambardella, 6, 81030 Lusciano CE, Italy",2.0
183,Skalo Eventi,40.8283877,14.0793882,ChIJ-_WvjOwROxMRT4mkEnIHznE,Pozzuoli,4.1,"complesso playoff, Via Miliscola, 506, 80078 Pozzuoli NA, Italy",34.0
184,Neasy,40.8007402,14.1745849,ChIJ18wIf6EOOxMRiwnSj_vv77U,Napoli,3.3,"Via Coroglio, 80122 Napoli NA, Italy",63.0
185,JD Club,40.8202794,14.1783204,ChIJR24l-LgOOxMR-gqDm1VPu3w,Napoli,3.6,"Via Corrado Barbagallo, 80125 Napoli NA, Italy",37.0
186,CLUB TYPE,40.8565382,14.1201076,ChIJWabYMvYPOxMR-BjGgjQCdrE,Pozzuoli,3.4,"Via Campana, 231, 80078 Pozzuoli NA, Italy",18.0
187,enjoy disco event,40.8742657,14.3070748,ChIJ6zavBdypOxMRGyPhwSR7jOY,Napoli,0.0,"Via Vicinale Cupa S. Severino, 24, 80143 Napoli NA, Italy",0.0
188,Club Life,40.8329818,14.1667967,ChIJpbCuEqQPOxMRb7OHiOO7zXI,Napoli,1.6,"Via Raffaele Ruggiero, 1, 80125 Napoli NA, Italy",13.0
189,Serata wè wè napolilanparty,40.8555579,14.264534,ChIJo78oIyYJOxMRUCCABPsLTpg,Napoli,0.0,"Via Cesare Rosaroll, 71, 80139 Napoli NA, Italy",0.0
190,Bukumba Luxury Club,40.9444533,14.2173179,ChIJrTbqPccGOxMRoPMFZDIjpQs,Sant'Antimo,4.2,"Via Appia Sud, Km. 18.100, 80029 Sant'Antimo NA, Italy",619.0
191,Conga Agnano Pozzuoli,40.8308392,14.1530085,ChIJH_UMQvEOOxMR6edChBnjBbU,Pozzuoli,4.3,"Via Pisciarelli, 73, 80078 Pozzuoli NA, Italy",97.0
192,Mama Ines Club,40.86074199999999,14.3624141,ChIJ2T-31qaoOxMRcBYoyBHWa84,Pollena Trocchia,4.0,"Via Giuseppe Garibaldi, 80040 Pollena Trocchia NA, Italy",332.0
193,Napoli Salsa,40.8438512,14.3704257,ChIJFfR63PsGOxMRgKBLzi4weMU,San Sebastiano al Vesuvio,0.0,"Via Roma, 80100 Napoli NA, Italy",0.0
194,Nero Nisida Music & Bar,40.7986345,14.1713307,ChIJs3bRmVMNOxMRsqf57rgfujw,Napoli,4.4,"Via Nisida, 40, 80124 Napoli NA, Italy",19.0
195,Aqua disco club,40.8471705,14.1941306,ChIJhRgSJNMIOxMR2aOd4n3n2XU,Napoli,4.0,"Via Pia, 37, 80126 Napoli NA, Italy",46.0
196,Jyou,40.8338389,14.0985286,ChIJDyY-vN8ROxMRn0_FK-cofDY,Pozzuoli,0.0,"80078 Pozzuoli, Metropolitan City of Naples, Italy",0.0
197,Tropicana dance music & party,40.8732177,14.1326076,ChIJXVBl4JAPOxMRi0l3rbEGd5Y,Quarto,4.4,"15,, Via Fausto Coppi, 13, 80010 Quarto NA, Italy",79.0
198,NoName Club,40.9385534,14.2776694,ChIJX8l84JcHOxMRfRATnshovCU,Frattamaggiore,3.0,"Via Don Minzoni, 80027 Frattamaggiore NA, Italy",12.0
199,Club 2.0,40.9752408,14.1076403,ChIJc8wECnMDOxMR0_4122a76cQ,Villa Literno,4.0,"Via Santa Maria a Cubito, 81039 Villa Literno CE, Italy",2.0
200,Crash,40.842243,14.1157638,ChIJfal09DAOOxMRu6AHtdgnHM0,Pozzuoli,3.0,"80078, Via Fascione, 4, 80078 Pozzuoli NA, Italy",34.0
201,Soho Club,40.7558656,14.4390056,ChIJ82wpQG6jOxMRpUa2MycrC0Q,Torre Annunziata,0.0,"Rampa Nunziante, 1, 80058 Torre Annunziata NA, Italy",0.0
202,Events Club (ex Sly),40.8251932,14.2180803,ChIJDanjuRcJOxMRb9nl7c_ChSE,Napoli,3.5,"Via Orazio, 75/77, 80122 Napoli NA, Italy",2.0
203,Club Teatro,40.7861922,14.3690312,ChIJ1U0buq-mOxMRA0GEsRNBjP8,Torre del Greco,0.0,"Via Teatro, 9, 80059 Torre del Greco NA, Italy",0.0
204,TANA DELLE TIGRI,40.7879547,14.364271,ChIJe2Ck56mnOxMRrPdd03ZCd3U,Torre del Greco,0.0,"Via Romano Monsignore Felice, 28, 80059 Torre del Greco NA, Italy",0.0
205,Hype Club,40.8575115,14.2632659,ChIJoW1Z6k8JOxMRVjvh3IIJS9w,Napoli,4.7,"Piazza Eduardo de Filippo, 15, 80139 Napoli NA, Italy",32.0
206,Bacco,40.848977,14.2544951,ChIJsbOGpkMIOxMRJfj_RzR7Sa8,Napoli,0.0,"Vico San Domenico Maggiore, 12, 80134 Napoli NA, Italy",0.0
207,Sunset,40.8295491,14.0568404,ChIJe6pQ9LYROxMR3gdvmgBahf0,Bacoli,0.0,"Unnamed Road, 80070, Bacoli NA, Italy",0.0
208,Villino mimmo enza canosa,41.313246,16.2123539,ChIJ7xECRSsZOBMRUXXRUTK0BQ0,Barletta,0.0,"76121 Barletta, Province of Barletta-Andria-Trani, Italy",0.0
209,Matisse Disco Club,40.842916,16.0117276,ChIJ36vHz6hZOBMRvdqVksT5oQU,Genzano di Lucania,4.8,"Contrada Viscigliola, 85013 Genzano di Lucania PZ, Italy",4.0
210,Discoteca Gaya',40.55813450000001,17.7912011,ChIJPeKnhEhiRhMRwGOcTCClmZs,Mesagne,4.4,"Via Giacomo Brodolini, 15, 72023 Mesagne BR, Italy",217.0
211,Latin Gold Disco Club,40.641079,17.6951038,ChIJD6yb5whnRhMRQ73bHPj2U9Y,San Vito dei Normanni,4.0,"SP48, 72019 San Vito dei Normanni BR, Italy",5.0
212,Statale GROOVE 379 APANI,40.686101,17.8313859,ChIJrR7owVZvRhMREeA3vXI70-Y,Brindisi,4.2,"Contrada, Via Apani, 9, 72100 Brindisi BR, Italy",11.0
213,Guaranà Wonder Club,40.7586741,17.7012828,ChIJRWulgb1pRhMRztyWErxRBrs,Carovigno,3.9,"Via dello Scoglio, 72012 Torre Santa Sabina BR, Italy",36.0
214,Cave Anfiteatro S.Giovanni,40.7337195,17.601187,ChIJ3WFVST5DRhMR3PlgNtW978w,Ostuni,4.7,"Contrada Tamburroni, 72017 Ostuni BR, Italy",3.0
215,Dream On Exclusive Club Puglia,40.5986682,17.5436558,ChIJ7WRkzuVYRhMRrYeeLNYd3Bg,Francavilla Fontana,4.8,"SP26 contrada castelluccio, 72013 Ceglie Messapica BR, Italy",23.0
216,18 metri quadri,40.5306836,17.5824007,ChIJW82ns5v1RhMRUFhj6vtqIa0,Francavilla Fontana,4.9,"Via Dante Alighieri, 10, 72021 Francavilla Fontana BR, Italy",71.0
217,Temple Bar Public House,40.7265319,17.5767685,ChIJPZutfDNDRhMRHJL8-n4174Y,Ostuni,4.3,"Via Leonardo Cisaria, 3, 72017 Ostuni BR, Italy",22.0
218,Scoglio del Cavallo,40.7585513,17.7011579,ChIJbcEIhr1pRhMRR_cOO4vMHdk,Carovigno,4.1,"Vai scoglio del cavallo, 72012 Carovigno BR, Italy",107.0
219,Aranceto Club,40.7927234,17.5455906,ChIJ-7bJvTxERhMRxUB0h5WnWIs,Ostuni,3.7,"Strada Comunale, 72017 Rosa Marina BR, Italy",252.0
220,Rock 'N' Road,40.9251925,17.1683578,ChIJ3XrQJzy2RxMRftRRXBz3AuQ,Conversano,0.0,"Via Tancredi, 10, 70014 Triggianello BA, Italy",0.0
221,Kambusa Rock Bar,40.9503572,17.3049006,ChIJN_vzASU1RhMREBw883YBG7E,Monopoli,4.4,"ang. via S. Quasimodo, Via Luigi Cadorna, 1, 70043 Monopoli BA, Italy",660.0
222,Noize,40.5904021,17.3715505,ChIJhdRybPj_RhMRK0aXqcUUv1A,Martina Franca,0.0,"SP71, 74023 Grottaglie TA, Italy",0.0
223,Falò Di San Marzano di San Giuseppe,40.4524391,17.5134715,ChIJlefGbFjwRhMR8GJ8MgzPxBQ,San Marzano di San Giuseppe,5.0,"74020 San Marzano di San Giuseppe, Province of Taranto, Italy",2.0
224,LA PALMA,40.4073231,17.6132142,ChIJ495F33ryRhMR_ilCn8uVsVQ,Manduria,4.5,"Viale Piceno, 74024 Manduria TA, Italy",2.0
225,Fluid,40.3995085,17.6362016,ChIJ2QIlgJzyRhMRQIbPVfrPeLk,Manduria,5.0,"Via Mercanti, 2, 74024 Manduria TA, Italy",23.0
226,Dionisio Club (ex Geko),40.4693943,17.396125,ChIJver0G4H7RhMRDSOYdgQEcdw,Carosino,3.3,"Via Olimpia, 2, 74021 Carosino TA, Italy",3.0
227,DANIELA Diviggiano,40.439125,17.7351674,ChIJ571wUAONRhMRu5vYEG6DBWg,Erchie,1.0,"72020 Erchie Province of Brindisi, Italy",1.0
228,Promotion Eventi Puglia,40.4383811,17.5203227,ChIJmQaCtt_xRhMRI2M7xPmkJA0,San Marzano di San Giuseppe,5.0,"Via P. A. Miccoli, 74020 San Marzano di San Giuseppe TA, Italy",3.0
229,MemBì Music Club,40.4659244,17.9660066,ChIJtxJmHNqARhMRb6_K3r8-oZE,Cellino San Marco,3.3,"Via P O, 5, 72020 Cellino San Marco BR, Italy",4.0
230,0831 Space,40.6346539,17.9346042,ChIJj5oIv0l6RhMR2TrJW8C74yQ,Brindisi,4.2,"Via Appia, 98, 72100 Brindisi BR, Italy",233.0
231,AZUL - The Club,40.4659296,17.9660272,ChIJtyKkUUSBRhMRCRUul07aSxc,Cellino San Marco,5.0,"Via P O, 5, 72020 Cellino San Marco BR, Italy",1.0
232,Fico Ricco,40.5120892,18.0092972,ChIJBdCLMMh_RhMRokY7MDYSFW4,San Pietro Vernotico,4.5,"SP86, 72027 San Pietro Vernotico BR, Italy",57.0
233,ROOM 46,40.6382491,17.9444322,ChIJEc4ZpyN6RhMRQumuAzwRYJk,Brindisi,3.8,"Via Palma, 12, 72100 Brindisi BR, Italy",5.0
234,Tacco 12 Club Prive,40.5130127,17.9891291,ChIJ06y9bjd-RhMRMZFtN6M6KGQ,San Pietro Vernotico,4.1,"SS16 Adriatica, 72027 Brindisi BR, Italy",59.0
235,sesto senso clubprivè,40.4919842,17.9895453,ChIJJSSrdoiBRhMRw7hINmnX-OM,San Pietro Vernotico,1.0,"SS16 Adriatica, 72013 San Pietro Vernotico BR, Italy",1.0
236,Lo nuovo Carióca,40.6645428,17.9502024,ChIJcdTo7e9xRhMRSUZL9HoZN4s,Brindisi,4.8,"72100 Brindisi, Province of Brindisi, Italy",5.0
237,Kuros Night,40.5110645,17.9894541,ChIJjdJ4sjB-RhMRgKbE0IydcQo,San Pietro Vernotico,5.0,"Via San Giuseppe, 16, 72027 San Piretro Vernotico BR, Italy",3.0
238,I Tre Santi,40.5410122,17.4224966,ChIJDc0P6gX5RhMRW3Dr_ndfmoU,Grottaglie,4.1,"Via XXV Luglio, 128/126, 74023 Grottaglie TA, Italy",159.0
239,Ristorante Full 80,40.7923161,17.4586676,ChIJ75yFZmtPRhMRHrlw5gz-IT4,Fasano,3.9,"Via Lecce, 7, 72015 Fasano BR, Italy",7.0
240,Freedom,37.3619291,-2.2703206,ChIJvchZJ2pPZQ0RvMV3NjFPjfE,Fines,4.0,"Av. Brasil, 04869, Almería, Spain",8.0
241,El Piano,37.3523686,-2.1909016,ChIJ4SKi29FLZQ0RZLerwzIQANU,Cantoria,4.4,"C. Oran, 42, 04850 Cantoria, Almería, Spain",157.0
242,BOOGALOO - LA CASITA DELLA SALSA,40.3865417,18.1336801,ChIJicPp-lApRBMRVskax84HvH8,Surbo,4.3,"Via Lecce, 184, 73010 Surbo LE, Italy",337.0
243,IL Giardino DI Galeano,40.50619090000001,18.0573477,ChIJo8Lhm2fVRRMRt9ykPomRGX4,Torchiarolo,3.0,"Santuario Madonna di Galeano, 72020 Torchiarolo BR, Italy",1.0
244,Terminal Code,40.3844917,18.1243714,ChIJN0SV048pRBMRrJYwgHosr6c,Lecce,0.0,"Viale Spagna, 103, 73010 Zona Industriale 1 LE, Italy",0.0
245,Discoteca Lo Smeraldo,40.462191,18.19508,ChIJ-daEQSstRBMRmLfDbZ3lPQA,Lecce,3.0,"Strada Provinciale Lecce Torre c, ., 73100 Lecce LE, Italy",1.0
246,Casalabeach,40.4971743,18.1205648,ChIJmaCTelzVRRMR0W3vjkb0298,Squinzano,0.0,"Via Lit.Nea Salentina Nord, 2, 73100 Casalabate LE, Italy",0.0
247,La Clave,40.2950822,17.7961284,ChIJ7f-DIDKRRhMRU5aUo9mOmvg,Punta Prosciutto,4.4,"Via Torre Colimena, 73010 Porto Cesareo LE, Italy",472.0
248,Villa Guarino,40.5266051,17.5490795,ChIJAR24X_X2RhMR5F51n7BO2lM,Francavilla Fontana,5.0,"Contrada Piscarano, Italy",3.0
249,Island Beach Club,40.2545444,17.890688,ChIJgR1qm72ZRhMRepDfO_tc600,Porto Cesareo,4.0,"Isola dello Scoglio, 5, 73010 Porto cesareo LE, Italy",469.0
250,Guaranà 2.0,40.28929309999999,17.9991248,ChIJ30pMb3mdRhMRHc-Ix1MmKNg,Leverano,4.6,"Via Vittorio Veneto, 2-20, 73045 Leverano LE, Italy",13.0
251,JIBO Disco Club,40.45962249999999,17.3603195,ChIJbXh6ScH9RhMRXtn4WJYzPEc,San Giorgio Ionico,3.8,"via Roma Complanare Sud, 74027 San Giorgio Jonico TA, Italy",10.0
252,MONACÒ - Campomarino,40.3080221,17.5785832,ChIJ_fXBDn7rRhMRyrXpMHNDUec,Campomarino di Maruggio,5.0,"74020 Maruggio, Province of Taranto, Italy",3.0
253,Replay Club,40.4366847,18.044583,ChIJiTQVsdmBRhMRlx02HvvQ4oU,Squinzano,0.0,"Via A. Diaz, 42, 73018 Squinzano LE, Italy",0.0
254,Gold,40.35800080000001,18.1839933,ChIJkyCETNMvRBMR1I0UPa5Z6mQ,Lecce,3.0,"Via Francesco Scarpa, 8a, 73100 Lecce LE, Italy",1.0
255,Sun City Lecce Food and Drinks,40.3516163,18.1725043,ChIJ4TmrYuEuRBMRQ_LYxD2xSO0,Lecce,4.7,"LE, Via Ludovico Maremonti, 10, 73100 Lecce LE, Italy",36.0
256,Womb,40.3292952,18.182893,ChIJnyRP7QwvRBMRjtrWY3iMelQ,Cavallino,3.5,"Strada Vicinale Bernardini, 73020 Castromediano, Cavallino LE, Italy",157.0
257,Alibi Creative Club,40.3516606,18.171818,ChIJ6ysdZeEuRBMROg4QA4Muu7U,Lecce,4.0,"Via degli Ammirati, P.za Vittorio Emanuele II, 15, 73100 Lecce LE, Italy",1256.0
258,Cicchetteria cocktail bar Suncity,40.3516431,18.1726141,ChIJW-vHGywvRBMRVSsnZEPDR20,Lecce,5.0,"Via Ludovico Maremonti, 5, 73100 Lecce LE, Italy",26.0
259,GLORIA,40.35184,18.1773394,ChIJpRHxb1EvRBMRcd4o2L2rDhw,Lecce,0.0,"Via Liborio Romano, 93, 73100 Lecce LE, Italy",0.0
260,Déjàvu,40.3519961,18.1711707,ChIJi9CnqUgvRBMRW_w7cvDF4Fw,Lecce,4.4,"Via Degli Ammirati, 18/A, 73010 Lecce LE, Italy",80.0
261,Disco Domus Area,41.46330770000001,15.568889,ChIJ5Z7O8kDYORMRpKbz72LqGpE,Foggia,3.6,"Viale Leone XIII, 201, 71100 Foggia FG, Italy",136.0
262,Charme Style,41.5074101,15.3351191,ChIJB6wCLXbhORMR7ESA7Wo7484,Lucera,5.0,"Via Antonio Gramsci, 46, 71036 Lucera FG, Italy",3.0
263,Irregular,41.4449768,15.5025634,ChIJmZ4h_WLZORMRRr4GY_k16Ck,Foggia,4.7,"Via Napoli, 71122 Foggia FG, Italy",28.0
264,La Isla Tropical,41.4684691,15.5572636,ChIJ_RL_aIHZORMR3dc4OWYtVhQ,Foggia,0.0,"Via Tratturo Castiglione, 10, 71122 Foggia FG, Italy",0.0
265,Il Bacio di Giuda,41.4643235,15.5426368,ChIJJT6hiUXZORMRxROO04ZeoMc,Foggia,5.0,"Piazza Mercato, 17/19, 71121 Foggia FG, Italy",2.0
266,Sala Feste Private Karisma Foggia,41.5247866,15.5068622,ChIJs5tRW0rYORMRTnlWksWgmx8,Foggia,4.1,"Km. 667.000 16, SS89, 71122 Foggia FG, Italy",35.0
267,Sala Compleanno,41.4126591,15.5491538,ChIJC3FLFiLZORMRPMKUvEz0yTk,Foggia,3.0,"SP105, 71122 Foggia FG, Italy",2.0
268,AMNESIA,41.46471469999999,15.5433965,ChIJgaToCYjZORMRoev4DWYcgtM,Foggia,5.0,"Vicolo S. Giuseppe, 20, 71121 Foggia FG, Italy",5.0
269,DISCO UNDO,41.4636305,15.5466117,ChIJ-WuVEfbYORMR8EWt838__Ac,Foggia,4.2,"DISCO UNDO, Piazza Cesare Battisti, 37, 71121 Foggia FG, Italy",240.0
270,La Carboneria Club,41.4644814,15.5449575,ChIJvwks7ubZORMRW_WWc8lZYp4,Foggia,4.0,"Via S. Domenico, 79-33, 71121 Foggia FG, Italy",4.0
271,New Exodus 2.0,41.4637778,15.5427552,ChIJ_fEGm0PZORMRNJpzxjVpb6s,Foggia,4.6,"Via Arpi, 96, 71121 Foggia FG, Italy",23.0
272,Replay luxury club,41.4638745,15.5513551,ChIJ1fotM1nYORMREfqupMW1FDo,Foggia,4.0,"Via Trento, 5D, 71121 Foggia FG, Italy",32.0
273,LUNAROSSA Ristorante Pizzeria Banchetti,41.4350852,15.5212469,ChIJnTWsDj_ZORMRtVgpMWdG8HE,Foggia,4.0,"Via Camporeale, Km 2/200, 71122 Foggia FG, Italy",558.0
274,Makitykaka,41.4642766,15.5425691,ChIJL5rLG2TZORMRn7Kq1mJ9gUU,Foggia,5.0,"Piazza Mercato, 16, 71121 Foggia FG, Italy",1.0
275,NOBILIS Disco Club,41.4122994,15.5489993,ChIJUfTfR4DZORMRi36VzdtPUy0,Foggia,0.0,"SP105, 71122 Foggia FG, Italy",0.0
276,cicchetteria Flash,41.4632882,15.5445723,ChIJtUy_WPbYORMRKWO15KORPV8,Foggia,4.0,"Via Bruno, 18, 71121 Foggia FG, Italy",1.0
277,Cayo Rico Foggia,41.4318469,15.5258388,ChIJvdyB6WrZORMRBC4F246On8E,Foggia,4.5,"Tratturo Castelluccio, 71122 Foggia FG, Italy",6.0
278,A casa di Beilú,41.42817410000001,15.5945656,ChIJZz1hlQjXORMRAfQcAaywBos,Foggia,4.5,"Str. del Salice Nuovo, 71122 Foggia FG, Italy",2.0
279,Karisma 2.0,41.5244108,15.5064253,ChIJD-7JCfxjNxMRxEJZymbWSio,Foggia,5.0,"Str. 20 Bonafica, 71121 Foggia FG, Italy",1.0
280,Piazza Cic E Cos,41.464059,15.5444538,ChIJe1XFifbYORMRh_BZAAJhM50,Foggia,0.0,"Corso Vittorio Emanuele II, 109/121, 71121 Foggia FG, Italy",0.0
281,Bios,41.4635192,15.5691838,ChIJifeW80DYORMRWYFIy_xvdx0,Foggia,0.0,"Viale Leone XIII, 201, 71121 Foggia FG, Italy",0.0
282,Athena Dancing,41.4317994,15.5253714,ChIJ5WGt4hbZORMR5lAPuk6wrWk,Foggia,3.3,"Via Castelluccio, 71122 Foggia FG, Italy",3.0
283,"Disco Pub ""Futur Club"" Movida",41.2742053,15.9060966,ChIJFQq9ZdsxOBMRc4bN6qAbJZ8,Cerignola,4.0,"Via Ivrea, 168, 71042 Cerignola FG, Italy",1.0
284,Red House Music Club,41.6316182,15.920514,ChIJby4_gqqbNxMR9XzbYqZq2Aw,Manfredonia,4.5,"Traversa del Baroni Cessa, 8, 71043 Manfredonia FG, Italy",6.0
285,Manfredonia Nappitiello - SP58 Discoteca dir SGR,41.6408838,15.8714888,ChIJPQn0YH6cNxMR26gJNhi3J68,San Giovanni Rotondo,0.0,"71043 Manfredonia, Province of Foggia, Italy",0.0
286,Civico 5,41.6312749,15.9212938,ChIJjZWUcwCbNxMR9WcrgW4Ucgg,Manfredonia,4.4,"Via del Rivellino, 5, 71043 Manfredonia FG, Italy",508.0
287,Good Afternoon,41.6308717,15.9163659,ChIJX5I15WKbNxMRuu2VsHy5SRU,Manfredonia,0.0,"Via delle Antiche Mura, 121/93, 71043 Manfredonia FG, Italy",0.0
288,Teatro,41.7070104,15.7296327,ChIJ1YYJtbl1NxMRzvsCND0Fq5I,San Giovanni Rotondo,0.0,"Via Giuseppe Verdi, 26, 71013 San Giovanni Rotondo FG, Italy",0.0
289,Campamento Playa,41.61472570000001,15.9000738,ChIJ3-FJ-z-bNxMRjpAAxbiQmtk,Manfredonia,0.0,"Lungomare del Sole, 70B, 71043 Manfredonia FG, Italy",0.0
290,Iteca di Lorenzo massimo,41.64741,15.9122316,ChIJebgT0CubNxMR2e9IwqNa928,Manfredonia,0.0,"Tratturo Pulsano, 71043 Manfredonia FG, Italy",0.0
291,Bagni Bonobo,41.6158434,15.9009565,ChIJaS0KQhWbNxMR123aX1u4g60,Manfredonia,4.0,"Lungomare del Sole, 54, 71043 Manfredonia FG, Italy",683.0
292,Casbah,41.61141509999999,15.8976235,ChIJebEUxECbNxMR6qhHlWK7foQ,Manfredonia,4.0,"Viale Manfredonia, 3, 71043 Siponto FG, Italy",343.0
293,BOTANICO,41.86250649999999,15.3505058,ChIJBe8-928_NxMRjQuWCxZNF04,Lesina,4.4,"Via Giacomo Puccini, 14, 71010 Lesina FG, Italy",11.0
294,176 - Centosettantasei,41.6956104,15.3037837,ChIJM1oA_aJENxMRj-kRz5V9ozM,Torremaggiore,0.0,"71017 Torremaggiore, Province of Foggia, Italy",0.0
295,BOTECO,41.6799641,15.3917148,ChIJIXiX5rtCNxMRsnTL2IsTW3k,San Severo,4.2,"via vecchia foggia sn, 71016 San Severo FG, Italy",33.0
296,LudoPark KTM - Regina,41.684417,15.3773502,ChIJu4TV3sNCNxMRXOzthweuWEQ,San Severo,0.0,"Via Torquato Tasso, 16, 71016 San Severo FG, Italy",0.0
297,Schow Time,41.6067621,15.2971832,ChIJ6VB3beRbNxMRYIWJFvNkp7w,Torremaggiore,0.0,"Via Torremaggiore, 71017 San severo FG, Italy",0.0
298,Hollywood Dance Elegance,41.8585831,15.3546732,ChIJhZA_I0w_NxMRb6Vkc3MusWg,Lesina,0.0,"Via Firenze, 45, 71010 Lesina FG, Italy",0.0
299,Mirò,41.679723,15.391438,ChIJo_bK5btCNxMRIQYodTSJxws,San Severo,4.2,"Via Vecchia Foggia, 71016 San Severo FG, Italy",45.0
300,H2NO,41.5072482,15.3350144,ChIJ-Q7k_BHhORMRzu0-0MuEUHQ,Lucera,0.0,"Via Famiglia Quaranta, 42, 71036 Lucera FG, Italy",0.0
301,Galaxy Studio,41.37028859999999,15.324831,ChIJPQL5LRvmORMR5cPSajnqsL0,Troia,5.0,"B, Contrada Fontanelle, 26, 71029 Troia FG, Italy",7.0
302,Club 33 Giri,41.832873,15.5693912,ChIJyw04cHUTNxMRmsUqjus18r8,San Nicandro Garganico,5.0,"Via Guglielmo Marconi, 46, 71015 San Nicandro Garganico FG, Italy",1.0
303,Madera Blanca,41.8226921,15.5500588,ChIJJVQYQfQSNxMRIMZusgQB7fc,San Nicandro Garganico,4.2,"Contrada Caprinella, 71015 San Nicandro Garganico FG, Italy",99.0
304,Club,41.8331672,15.5713365,ChIJAbqUmOITNxMRMnGT0LYxq5A,San Nicandro Garganico,0.0,"Via Giuseppe Folla, 71015 San Nicandro Garganico FG, Italy",0.0
305,Diamond Club,41.3038905,15.61128,ChIJv0vYdivPORMRKbsOIwQFkLQ,Ordona,5.0,"SP110, 71040 Ordona FG, Italy",1.0
306,Al 58,41.80617650000001,15.1588727,ChIJpeiDxw9JNxMRL7rS6L28e74,Serracapriola,0.0,"Corso Giuseppe Garibaldi, 58, 71010 Serracapriola FG, Italy",0.0
307,La Spannedda di Ciok,41.9201184,15.5795622,ChIJM3FPh0URNxMR8ir9oFURuU0,Lesina,5.0,"Via Tammaricella, 71010 Torre Mileto FG, Italy",7.0
308,HOLLYWOOD discobar,41.7121596,15.6437501,ChIJDcaL-9RzNxMRi9xbiLQKANc,San Marco in Lamis,0.0,"Via Ferruccio Parri, 28, 71014 San Marco in Lamis FG, Italy",0.0
309,Artis lab beer,41.76361259999999,15.4271613,ChIJe3PipwJrNxMRKSRwQOCVqPU,Apricena,4.1,"SS89, 71011 Apricena FG, Italy",452.0
310,Open Gallery Cafè,41.7072459,15.7219741,ChIJlVb6QCV0NxMRzrqLukjKeYI,San Giovanni Rotondo,4.1,"Piazza Europa, 98, 71013 San Giovanni Rotondo FG, Italy",348.0
311,Blocco Sette,41.8886024,16.1752169,ChIJ44mO2hrJNxMRAP2DsCNXzps,Vieste,3.3,"Via Venezia, 71019 Vieste FG, Italy",28.0
312,Giarrone Cocktail Bar,41.9486483,16.0133409,ChIJHa20ZJ-xNxMRUm5rmNwAFRE,Peschici,4.4,"Via Papateodoro, 1, 71010 Peschici FG, Italy",25.0
313,La Brocca disco,41.9240047,16.0034172,ChIJvzhmOVOxNxMRI-iRKnJqhEs,Peschici,4.7,"71010 Peschici, Province of Foggia, Italy",3.0
314,Molo Del Porto,41.9490218,16.0077828,ChIJD028F6KxNxMR-EgwaawK9FE,Peschici,4.9,"Contrada Pozzillo, 71010 Peschici FG, Italy",8.0
315,Mokerhapa Lounge Bar,41.9486318,16.0130094,ChIJNZXvY5-xNxMRoFZgRB8Yju8,Peschici,4.3,"Via Buonconsiglio, 7, 71010 Peschici FG, Italy",32.0
316,Dejavù Lounge Bar,41.8822298,16.175038,ChIJQ0tZrxbINxMR7Ajvk2mHZ4E,Vieste,4.1,"Viale XXIV Maggio, 71019 Vieste FG, Italy",278.0
317,Mistral Cafè 42° Parallelo,41.8936185,16.1598943,ChIJK3YtMyfINxMR8HjTxer-DbM,Vieste,3.7,"Lungomare Europa, Località, 71019 San Lorenzo FG, Italy",454.0
318,Quasenada Beach Club,41.845903,16.1796702,ChIJwbfHFpXHNxMReFayhAxXGdM,Vieste,4.2,"Strada Provinciale Mattinata -Vieste, 20, 71019 Vieste FG, Italy",484.0
319,Flower Palm,41.9010867,15.3094944,ChIJ1ZfD3W45NxMRWZ9FUHouq9E,Marina di Lesina,0.0,"W825+CQ, 71010 Lesina FG, Italy",0.0
320,Macarena,41.7013261,15.3542788,ChIJBaE7qARDNxMRpRWOtbeq6h0,San Severo,4.1,"Strada provinciale per san Paolo Civitate km 49+100, 71016 San severo FG, Italy",59.0
321,Minami club,41.6114104,15.8968902,ChIJ_UzHFnSbNxMRv1aJCp8KboY,Manfredonia,0.0,"Piazza del Daino, 71043 Manfredonia FG, Italy",0.0
322,La Frutta Che Si Beve,41.6348427,15.9298372,ChIJvUcMsVaaNxMROY7yAkZbvBg,Manfredonia,3.3,"Riviera Acqua di Cristo, 71043 Manfredonia FG, Italy",25.0
323,"Edificio 15, Yacht Club",41.9322399,15.889808,ChIJ3RVbJjqvNxMRhwYTXoHFVWk,Rodi Garganico,0.0,"71012 Rodi Garganico, Province of Foggia, Italy",0.0
324,Il Chioschetto Biricchino,41.9300567,15.884252,ChIJw7qNMWKvNxMRNp7I7WHH2lE,Rodi Garganico,4.4,"Corso Giannone, 71012 Rodi Garganico FG, Italy",244.0
325,Pizzeria Lounge Bar Pagoda Beach,41.924797,15.8422136,ChIJq_gvDZCoNxMRSUcWJjRx_Gk,Lido del Sole,3.6,"Via delle More, 71012 Lido del Sole FG, Italy",63.0
326,Luda koka,43.1764599,16.6666333,ChIJBWzvbXuHShMRwWWqafz3lAA,Općina Jelsa,4.4,"21463, Vrboska, Croatia",117.0
327,Mamato Bar Spiaggia,43.1572987,16.4171593,ChIJNcfSFJ-DNRMRy7vA9Iv_8GA,Grad Hvar,4.7,"Hvar, Croatia",3.0
328,Carpe Diem Bar (Hvar Town),43.1703,16.4412929,ChIJfUv-l4CBNRMRPTaBinKpVQE,Grad Hvar,4.1,"Riva 32, 21450, Hvar, Croatia",1669.0
329,Passerola Night Club,43.1727346,16.4432258,ChIJk4lBiZyBNRMRrKJxhKBktR0,Grad Hvar,1.7,"Dr. Mate Miličića 10, 21450, Hvar, Croatia",26.0
330,Night club Romance,43.1688366,16.4572897,ChIJ7QZ_5dGBNRMRrbtrfiRXeuk,Grad Hvar,3.9,"Miće Marchija 9, 21450, Hvar, Croatia",53.0
331,CARPE DIEM BEACH,43.1584064,16.426348,ChIJTbwrcsWDNRMRwGbAS1f3g5Y,Grad Hvar,4.0,"Stipanska, 21450, Hvar, Croatia",2249.0
332,585 Club Bol,43.2591367,16.6326728,ChIJzW3ITwaEShMR4pYI9nrI1R0,Općina Bol,3.1,"Put Zlatnog Rata 52B, 21420, Bol, Croatia",171.0
333,Pink Champagne Hvar,43.1724155,16.4453932,ChIJ5QBBkoaBNRMRETG0kGC87Ec,Grad Hvar,2.9,"Ive Miličića 4, 21450, Hvar, Croatia",70.0
334,Central Park Club,43.172899,16.4408423,ChIJOcrqYIeBNRMRz74K8BnENmI,Grad Hvar,4.5,"Sveti Marak 2, Bankete bb, 21450, Hvar, Croatia",818.0
335,Bar Discoteca Manhattan,41.1020804,15.4600596,ChIJhQtsmy68ORMRlGVhNZet4fY,Rocchetta Sant'Antonio,3.9,"Largo Visconti Modrone, 15, 71020 Rocchetta Sant'Antonio FG, Italy",22.0
336,Gusto,41.2066217,15.5607315,ChIJOZQhulHHORMRWurbaVIV4OI,Ascoli Satriano,5.0,"Vico Carapelle, 71022 Ascoli Satriano FG, Italy",1.0
337,Festa dell'Autunno,41.2059922,15.5614364,ChIJiYYhUoLHORMREd8Pqr7lG04,Ascoli Satriano,0.0,"Piazza Giovanni Paolo II Papa, 71022 Ascoli Satriano FG, Italy",0.0
338,a.s.d. only sub,41.9675251,15.0449338,ChIJn0gMOzgzNxMRfIvn41fZxQk,Campomarino,4.9,"Via Francesco Crispi, 85, 86042 Campomarino CB, Italy",10.0
339,Club 2 Miles,41.9524727,15.0645471,ChIJRx18dWUzNxMRjoUNlPN7RdY,Campomarino,4.3,"Via E. Vanoni, 2B, 86042 Campomarino Lido CB, Italy",24.0
340,Sensation Disco Pub,41.3145934,15.0191318,ChIJE51XbRAeOhMRhw2sxhb142c,Montefalcone di Val Fortore,4.4,"SP31, 82025 Montefalcone di Val Fortore BN, Italy",7.0
341,Reset Dinner Club,41.1584595,15.1081946,ChIJ6Uc30gCLORMRoscU457akDM,Ariano Irpino,4.6,"Via Villa Caracciolo, 44, 83031 Ariano Irpino AV, Italy",15.0
342,Blue Wave Music Club,40.9899904,15.6480529,ChIJmaJUQzGuORMR2lrnZFSz4Yg,Melfi,1.5,"viale 85025, Viale Gabriele D'Annunzio, 142, Melfi PZ, Italy",4.0
343,Venelandia,41.679966,15.390567,ChIJIXiX5rtCNxMRY3vPjDSG8yQ,San Severo,3.5,"Via Vecchia Foggia, 71016 San Severo FG, Italy",17.0
344,Melagodo -Events,41.976997,15.0047355,ChIJ4Sx4qXLNMBMR9TBz07ea5eY,Termoli,4.0,"Via dei Meli, 11, 86039 Termoli CB, Italy",9.0
345,Dancing Sombrero,43.6937174,10.8366098,ChIJSQSAAVNuKhMRb4h6YtpXz8w,San Miniato,4.1,"Via Giuseppina Pizzigoni, 10, 56028 San Miniato Basso PI, Italy",713.0
346,Kaleido discoteca,43.5886449,10.9938315,ChIJQcqvjYhBKhMRkejpPr9l63Y,Castelfiorentino,2.5,"Via J. G. Mendel, 9, 50051 Malacoda Zona Industriale FI, Italy",4.0
347,Ypsilon,43.5508695,11.0384848,ChIJ7SMRw28_KhMRxvdV-fozJlE,Certaldo,3.5,"Via Felice Cavallotti, 38, 50052 Certaldo FI, Italy",21.0
348,ghizzans,43.535667,10.7957138,ChIJ0TjT67ANKhMRbGa8bC_eCdc,Peccioli,0.0,"Via Santa Maria, 56037 Ghizzano PI, Italy",0.0
349,Casa Del Popolo Dancing Y,43.550796,11.0380829,ChIJJ3VLwW8_KhMRcTLvB5Plt70,Certaldo,4.3,"Via Felice Cavallotti, 38, 50052 Certaldo FI, Italy",6.0
350,"MATERIA - We build fun, food and more.",43.706129,10.9006445,ChIJedlUURdpKhMR9iZxp0W4QLs,Empoli,3.8,"Largo Rina Chiarini, 3, 50053 Empoli FI, Italy",21.0
351,Oh My Goth - Summer Rock Festival,43.7580099,10.8159212,ChIJkWbTWzllKhMRoF8FuIuVqvw,Cerreto Guidi,0.0,"50050 Cerreto Guidi, Metropolitan City of Florence, Italy",0.0
352,JUST ilvenerdì,43.7278645,11.0018284,ChIJzeSd97RdKhMRLQmnwZeWMjE,Montelupo Fiorentino,2.0,"Via Arti e Mestieri, 9, 50056 Montelupo Fiorentino FI, Italy",2.0
353,8bit Garage,43.723495,11.0009666,ChIJARxar0ldKhMRYUnNinPJZTs,Montelupo Fiorentino,4.6,"Via Gubbio, 9, 50056 Montelupo fiorentino FI, Italy",29.0
354,Il Principe,43.4711304,11.8464203,ChIJbcR2iSjtKxMRMuuSxXpif5A,Arezzo,3.9,"Via Newton, 41, 52100 Arezzo AR, Italy",627.0
355,Grace Club,43.4616701,11.8774159,ChIJx7_fTUPtKxMRjuwT2BUtxLI,Arezzo,1.0,"Via della Madonna del Prato, 125, 52100 Arezzo AR, Italy",2.0
356,Nirvana Discoteca - Parco delle Stelle,43.5705008,11.5998835,ChIJX1UfGBy7KxMRyoE_kyCpohc,Terranuova Bracciolini,4.3,"Via delle cave, 100, 52028 Terranuova Bracciolini AR, Italy",3.0
357,Class 125,43.4616905,11.8773615,ChIJ60qkT0PtKxMRy3EIWUwrVXQ,Arezzo,3.5,"Via della Madonna del Prato, 125, 52100 Arezzo AR, Italy",123.0
358,Carosello Casa Cantoniera,43.516597,11.611496,ChIJa4CxmMC4KxMRAl6NGv4o-tQ,Terranuova Bracciolini,3.6,"Via Lungarno 4747, 52028 Terranuova Bracciolini AR, Italy",39.0
359,Dolce Verde,43.538609,11.74093,ChIJDwX2qbqVKxMRTukmottDzQs,Castiglion Fibocchi,4.0,"Via Setteponti, 116, 52029 Castiglion Fibocchi AR, Italy",66.0
360,CRZY LB: “Back To Top”,43.4584834,11.910755,ChIJc33QQ0bzKxMRkzM-NiNRzm0,Arezzo,0.0,"Via F. Severi, 52100 Arezzo AR, Italy",0.0
361,Whynot Arezzo,43.4616701,11.8774159,ChIJ76TedEDtKxMR5KkUAWTvyk4,Arezzo,4.3,"Via della Madonna del Prato, 125, 52100 Arezzo AR, Italy",3.0
362,Tineretului Arezzo,43.46488610000001,11.8489595,ChIJlY3YViHtKxMRKK3Y2u1G8_g,Arezzo,3.7,"Via Don Luigi Sturzo, 110, 52100 Arezzo AR, Italy",28.0
363,Dancing Paris,43.5762445,12.0366587,ChIJWU-KY1KIKxMRwz1Qj_PELN8,Anghiari,5.0,"Via di Motina, 136, 52031 Motina AR, Italy",2.0
364,SEVEN A.P.S. ingresso riservato ai solo soci,43.4673264,11.8445132,ChIJm5_HDyftKxMRPIOCTkYHHTI,Arezzo,3.7,"Via Luigi Galvani, 97, 52100 Arezzo AR, Italy",6.0
365,Prestige,43.4311422,11.8429755,ChIJ5ZaXwNztKxMRuCp1pu88dmk,Arezzo,0.0,"52100 Arezzo, Province of Arezzo, Italy",0.0
366,Frich,43.4632878,11.8796862,ChIJEQ7fZEHtKxMRPtwEaUVCz5w,Arezzo,0.0,"52100 Arezzo, Province of Arezzo, Italy",0.0
367,Inn Club,41.1169157,15.0818705,ChIJm9QB5P6IORMRE9SMQaBkSos,Ariano Irpino,4.6,"Via Nazionale Manna, 83031 Ariano Irpino AV, Italy",21.0
368,Monopolio,41.1545262,15.0915084,ChIJAQu6HuuJORMRcdcrZFR3GT8,Ariano Irpino,4.2,"Via Prolungamento Marconi, 8, 83031 Ariano Irpino AV, Italy",5.0
369,Mjda,41.13972589999999,15.0818806,ChIJLW1e6ueJORMRDIuPreUbWeg,Ariano Irpino,0.0,"Via Cardito, 10-41, 83031 Ariano Irpino AV, Italy",0.0
370,A'Furmicula discorestaurant,42.1140894,15.487347,ChIJ1ViLnxweNxMRb30-lu7XbWM,San Nicola,3.7,"Via Giovanni Falcone, 14, 71051 Isole Tremiti FG, Italy",374.0
371,DISCOTECA diomede,42.1147123,15.4905659,ChIJ_YjYFAMeNxMRgqn9HLz4Bns,San Nicola,3.4,"71040 Villaggio San Domino, Province of Foggia, Italy",7.0
372,Diomede,42.1145035,15.4899311,ChIJzxR9GXofNxMRnBVqnKtoOI0,San Nicola,3.8,"Piazza Sandro Pertini, 2, 71040 Villaggio San Domino FG, Italy",18.0
373,Discoteca Vier di Casole Clara,40.0119404,18.1608865,ChIJ_5-AgUIbRBMRF-3g4Whp1E8,Casarano,4.0,"Via Matino, 12, 73042 Casarano LE, Italy",16.0
374,Riobo,40.0958915,18.0244661,ChIJWT8KG9ugRhMRSMFwDvMu-UM,Sannicola,4.0,"Strada Prov.le Lido Conchiglie - Sannicola, 73014 Gallipoli LE, Italy",1363.0
375,PLANET LEQUILE,40.2948927,18.1351221,ChIJcyH0wdQnRBMRFVr2G2aot6Q,Lequile,4.7,"Via Guglielmo Marconi, 85, 73010 Lequile LE, Italy",25.0
376,Radioalbachiara,40.2647807,18.3359154,ChIJW2r-yVk5RBMRE-2OcSLiPYw,Melendugno,0.0,"Via Antonio Gramsci, 73026 Melendugno LE, Italy",0.0
377,Covo 85,40.1712503,18.2972714,ChIJPS4UpFM9RBMRjNQGQWV2aoE,Castrignano de' Greci,3.3,"Via Michelangelo, 50/68, 73020 Castrignano De' Greci LE, Italy",84.0
378,Radiorosa,40.2647807,18.3359154,ChIJOQcdon45RBMR8aXh30CiwgM,Melendugno,0.0,"Via Antonio Gramsci, 64, 73026 Melendugno LE, Italy",0.0
379,Industrie Musicali,40.1365243,18.2943985,ChIJb3Y9VJ09RBMRHe6WQEIpSu4,Maglie,3.6,"Area Industriale, 73024 Maglie LE, Italy",72.0
380,Industrie Musicali,40.1179075,18.2987343,ChIJ3ZeC9ToWRBMRKW7CKxJaBbA,Maglie,5.0,"Via delle Industrie, 73024 Maglie LE, Italy",1.0
381,Madonnina,40.1668646,18.0252693,ChIJ3-wX4WOhRhMRDA5ijB_q3G0,Nardò,4.8,"Piazzetta Vergine di Lourdes, 73048 Nardò LE, Italy",6.0
382,BiscaRrizz,40.1846617,18.0277102,ChIJMc0Dr_2fRhMRwa4YCOnLjLE,Nardò,5.0,"Via Principi di Savoia, 171, 73048 Nardò LE, Italy",1.0
383,Tenuta karitè,40.1564224,18.2507821,ChIJT9EfaawiRBMRai9uloSsME0,Corigliano d'Otranto,3.5,"Via Coriolano, 73022 Corigliano D'otranto LE, Italy",2.0
384,Bruno Negro Discoteca Hi-Fi,39.9799385,18.2468534,ChIJi2QMgP0PRBMRxrPLtof6qzQ,Ruffano,4.9,"Via Leuzzi, 17, 73049 Ruffano LE, Italy",73.0
385,Golden,40.1827782,18.1692103,ChIJxVTzmPQjRBMR5wNFKTn5m7Y,Galatina,3.9,"Via Ippolito De Maria, 73013 Galatina LE, Italy",12.0
386,Red Baron,40.0881278,18.4235457,ChIJF4n3tjUVRBMRs5iZsz3LigE,Minervino di Lecce,4.4,"Via Edmondo de Amicis, 22, 73027 Minervino di Lecce LE, Italy",12.0
387,SALENTO NIGHT,40.0340291,18.1327713,ChIJr3dDd5cdRBMRDnl6bbQU0Fc,Matino,0.0,"Via Catania, 7, 73046 Matino LE, Italy",0.0
388,Castrignano de' Greci - Via Michelangelo (Discoteca Ciak),40.17104,18.297078,ChIJiVeqWE08RBMRiWulNh8Goyk,Castrignano de' Greci,0.0,"73020 Castrignano de' Greci, Province of Lecce, Italy",0.0
389,Quartiere Latino,40.1116715,18.0220598,ChIJxyQB6MCgRhMRFn65vyumpmc,Sannicola,3.8,"Quartiere Latino, SP17, 73017 Sannicola LE, Italy",29.0
390,Eden Sensation Club,40.1302876,18.450511,ChIJl6oHsq9BRBMR7c12qxLkQik,Giurdignano,4.7,"SP277, 73020 Giurdignano LE, Italy",69.0
391,The Club,40.1095812,18.3076059,ChIJHyBh8j8WRBMRaxkdEzg3NcI,Maglie,0.0,"Via Don Ciccio Rotundo, 73024 Maglie LE, Italy",0.0
392,Praja Gallipoli,40.0321069,18.0187183,ChIJ1aHSscanRhMRKvCwwGsOZGE,Gallipoli,3.8,"Lungomare Galileo Galilei, 73014 Gallipoli Baia Verde LE, Italy",2865.0
393,Vega Discoteca,39.9981169,18.0498334,ChIJa4eBXtIDRBMRdqR9A4v6zTE,Taviano,4.0,"SP289, 73057 Taviano LE, Italy",381.0
394,Casablanca discoteca salento,40.1534375,17.9800625,ChIJ6dgJ2yGZRhMRxJ2TqWah1wM,Nardò,3.9,"5X3J+92, 73048 Nardò LE, Italy",9.0
395,Ten Gallipoli,40.006166,18.019093,ChIJXwum-m2oRhMR7kRqsx6xQXE,Gallipoli,3.8,"Strada Provinciale 215, Loc Li Foggi, 73014 Gallipoli LE, Italy",405.0
396,First Club Gallipoli,40.0516503,18.0044962,ChIJA9SctfWnRhMR6kK_35Sxjx0,Gallipoli,3.5,"SS274, km 1, 73014 Gallipoli LE, Italy",38.0
397,Kabana Gallipoli,40.0321608,18.018047,ChIJaVS6Kk6nRhMRRXDhoe9gbgY,Gallipoli,3.9,"SP200, 73014 Gallipoli LE, Italy",24.0
398,kabana,40.0564048,18.0042033,ChIJC1kLf6qnRhMRtsiqZaZHK_M,Gallipoli,0.0,"Via Vittorio Alfieri, 8, 73014 Gallipoli LE, Italy",0.0
399,Ten Club,40.006316,18.0197613,ChIJyaJ_8G2oRhMR_ikBUqW_PVU,Gallipoli,3.8,"Litoranea Gallipoli - S.M.Leuca km 2, 73014 Gallipoli LE, Italy",79.0
400,Mangianastri 2.0,40.2728098,18.0483198,ChIJNQZLEoqdRhMR8kG85qaTe0E,Copertino,5.0,"Via Madonna delle Grazie, 3, 73043 Copertino LE, Italy",5.0
401,S Maria Al Bagno,40.0558504,17.9921698,ChIJJbGrzVamRhMRLLg_NJ2bwcE,Gallipoli,3.8,"73014 Gallipoli, Province of Lecce, Italy",9.0
402,Riobo,40.0557998,17.9965695,ChIJeRZ4blSmRhMR3dOlu36gMw4,Gallipoli,3.6,"73014 Gallipoli, Province of Lecce, Italy",7.0
403,Wild Club,40.1549051,17.9793439,ChIJg_OROqWhRhMRRxiVHnwzBCs,Nardò,4.4,"Portoselvaggio di, 73048 Nardò LE, Italy",25.0
404,Santavè by Tequila,40.0530706,17.9763898,ChIJBfrqBmimRhMRcGYliogCCo4,Gallipoli,3.9,"Riviera A. Diaz, 55, 73014 Gallipoli LE, Italy",225.0
405,Ficodindia,40.1598398,17.9571902,ChIJS2Q7b4mhRhMRkb2cVRUVwWw,Nardò,3.8,"SP286, 73048 Nardò LE, Italy",289.0
406,MyGallipoli.it,40.051247,17.997679,ChIJWzaInvOnRhMRPiAhPyvFdSc,Gallipoli,0.0,"Lungomare Galileo Galilei, 20, 73014 Gallipoli LE, Italy",0.0
407,club suonatori,40.0547685,17.9755885,ChIJa2eO_LanRhMRW6XJ6BNuuWk,Gallipoli,5.0,"Via Antonietta de Pace, 94/98, 73014 Gallipoli LE, Italy",1.0
408,Fly Sunset Emotion,40.265781,17.8851242,ChIJK6jSfZKZRhMRDdm7p8L3xHI,Porto Cesareo,4.2,"73010, Via Vincenzo Monti, 176, 73010 Porto cesareo LE, Italy",541.0
409,Pubblica,40.0916263,18.0457494,ChIJ_3COLVWnRhMR0ZT9l3jzlaM,Sannicola,0.0,"Strada Comunale, 73017 Sannicola LE, Italy",0.0
410,Antica Rudiae,40.3051822,18.1247278,ChIJ3_2AQBMnRBMRIAlEcHJy5q0,San Pietro in Lama,0.0,"73010 San Pietro in Lama, Province of Lecce, Italy",0.0
411,Masseria Pantalei,40.1587411,18.0350155,ChIJIe3b7RGgRhMRBYhgLrciqNw,Nardò,4.9,"73048 Nardò, Province of Lecce, Italy",7.0
412,PLAY DISCOTEK,39.9720748,18.0733295,ChIJx1kbUQYDRBMRE407gEuz74Y,Taviano,0.0,"Strada Provinciale 222, 188, 73057 Taviano LE, Italy",0.0
413,Village Picador,39.9503218,18.032633,ChIJ-cGc506oRhMRtk4GwTmcT-o,Racale,4.0,"SP215, Torre Suda LE, Italy",325.0
414,Vega Discoteca,39.9790536,18.0851806,ChIJd2-IMIkDRBMR771PfunGblU,Taviano,5.0,"73057 Taviano, Province of Lecce, Italy",1.0
415,Arena del mare,39.9733746,18.0175822,ChIJtw2WZQapRhMRCXSYdkiUPnA,Taviano,4.3,"73057 Marina di Mancaversa-Giannelli, Province of Lecce, Italy",8.0
416,Drip House,39.9689857,18.1246444,ChIJ5RmxKssDRBMRDyHa0esR6l4,Melissano,0.0,"Via Genova, 52, 73040 Melissano LE, Italy",0.0
417,Binario1,39.9902808,18.0696816,ChIJESLDpL8CRBMRQpz7QAmQOUw,Taviano,4.5,"Via degli Artigiani, 27, 73057 Taviano LE, Italy",19.0
418,Movida Club Tricase,39.9256895,18.3589715,ChIJp4YO0rUNRBMR7Nfi0PMD98I,Tricase,4.4,"Via Vittorio Emanuele II, 6, 73039 Tricase LE, Italy",45.0
419,The Other Place Southernland,39.9686795,18.2617529,ChIJgX0uGZkPRBMRO0Pzksc3wY8,Ruffano,5.0,"Via Thomas Alva Edison, 73049 Ruffano LE, Italy",1.0
420,La Zona - Food Drink,40.0747688,18.1595174,ChIJ2YgQhA8ZRBMRiKF81CGPbKw,Collepasso,4.6,"Via Pietro Nenni, 31, 73040 Collepasso LE, Italy",16.0
421,Byblos dinner & dance,39.9802742,18.3220424,ChIJFyo3QzIRRBMRA4SJwvarPiE,Montesano Salentino,4.3,"Via S. Donato, 140, 73030 Montesano salentino LE, Italy",242.0
422,La Ciurlita Torre Sangiovanni Ugento Lecc,39.8496189,18.186035,ChIJsXDWwHQHRBMRbtuGniTVJa4,Ugento,0.0,"73059, Lido Marini LE, Italy",0.0
423,Guendalina,40.030838,18.4347324,ChIJjV1AoGhrRBMRr7hT8knPfkg,Santa Cesarea Terme,4.4,"SP259, 1, 73020 Santa Cesarea Terme LE, Italy",245.0
424,Malè Discoteca,40.0379913,18.4573209,ChIJeWyo0m5rRBMRJYmL9LF_9Ww,Santa Cesarea Terme,4.4,"Via Pola, 40, 73020 Santa Cesarea Terme LE, Italy",309.0
425,Blubay Club,40.0192489,18.4291572,ChIJdek-xUwTRBMRvq5b5xuikYk,Castro,4.5,"Via Sant'Antonio, 73030 Castro LE, Italy",1090.0
426,Gibò Luxury Club & Weddings,39.844785,18.385376,ChIJgxmsGAQLRBMRv4xR6qeEjJU,Gagliano del Capo,4.5,"Litoranea Santa Maria di Leuca Otranto, km 5, 73034 Ciolo, Gagliano del Capo LE, Italy",788.0
427,Typhoon club discoteca,39.9765395,18.3998945,ChIJORfdFZsTRBMRfNnISHKxqEI,Diso,4.3,"Via del Mare, 73032 Marina di Andrano LE, Italy",3.0
428,Il Trullo Rosa,39.9963853,18.4106417,ChIJV7awWH0TRBMRI_hDoiR3Fzw,Castro,0.0,"Unnamed Road, 73030 Castro LE, Italy",0.0
429,Rocco Meccanico,40.0184677,18.4040512,ChIJOZKPVKETRBMRg3auwueDNYI,Vignacastrisi,5.0,"Via Umberto Giordano, 23/1, 73030 Vignacastrisi LE, Italy",1.0
430,Movida Disco And Live Music,39.9235373,18.3593016,ChIJQ8zAybUNRBMR6FHfiqOPMdk,Tricase,5.0,"Via Vittorio Emanuele II, n 6, 73039 Tricase LE, Italy",2.0
431,Burlesq Fashionable,40.3493126,18.0390785,ChIJT9iSiqKCRhMRkOIWvuzkQps,Carmiano,4.4,"Via D. Donato Franco, 19, 73041 Carmiano LE, Italy",298.0
432,Casa nonna Meccu,40.3512999,18.1788049,ChIJMSFWzysvRBMR1fwBQuK2Pz4,Lecce,0.0,"Via Nazario Sauro, 73100 Lecce LE, Italy",0.0
433,N30,40.402257,18.1713229,ChIJJbBEVzwsRBMRJk1xvu-6g1o,Lecce,4.3,"Strada Provinciale Lecce Torre Chianca, 30, 73100 Lecce LE, Italy",6.0
434,Gusto Di Vino Summer,40.5052441,18.1154659,ChIJ_2rQ_mXVRRMRNXgyDOYZp8I,Squinzano,4.7,"Via Lungomare Nord, 135, 73100 Casalabate LE, Italy",7.0
435,Villa Diego,40.25863469999999,18.4274675,ChIJBRym9Qc4RBMRORLfmOdjoFI,Melendugno,0.0,"Viale del Sultani, 73026 Torre Saracena LE, Italy",0.0
436,Spinnaker,40.1452304,18.4933304,ChIJFTvW1A1BRBMRLhdkf2uw1Sg,Otranto,3.7,"Via Bastione Pelasgi, 12, 73028 Otranto LE, Italy",827.0
437,Babilonia,40.254861,18.4445965,ChIJz3xxUO9HRBMRjUPu_J9c9xM,Torre dell'Orso,4.3,"Via del Porticciolo, 73026 Torre Sant'Andrea LE, Italy",1394.0
438,Balnearea Beach Otranto,40.200062,18.459422,ChIJuQMl_RVHRBMREQ-8Q2mOAPQ,Otranto,4.1,"Contrada Alimini, 73028 Otranto LE, Italy",1619.0
439,Era Ora Lounge Bar,40.2738916,18.4157977,ChIJJ6dv_fk3RBMRYCk3-HupYxo,Torre dell'Orso,4.3,"Via Massimo Troisi, 73026 Torre dell'Orso LE, Italy",416.0
440,Discolandia,40.326929,17.9664935,ChIJ0c9iorycRhMRKHlNKjaX89s,Veglie,0.0,"Via Sant'Agostino, 73010 Veglie LE, Italy",0.0
441,DISCO ROSSO,40.4378229,18.0404852,ChIJrXjsatqBRhMR1MEjgBp4i-o,Squinzano,0.0,"Via Vittorio Veneto, 73018 Squinzano LE, Italy",0.0
442,Balera Associazione ANTA Liscio e Karaoke,40.3823942,18.1274929,ChIJtz29s5gpRBMR7-wd8bsJVEw,Surbo,0.0,"Via Belgio, 1, 73010 Zona Industriale 1 LE, Italy",0.0
443,Danzarte 2,40.28822590000001,18.0027963,ChIJOdtVDa2dRhMRFTI9Rdp23ms,Leverano,0.0,"Via Po, 19, 73045 Leverano LE, Italy",0.0
444,Mamanera Beach,40.31133940000001,18.3909105,ChIJkf1kc603RBMRkVoa5KKzPkg,San Foca,4.5,"San Foca, SP366, 73026 Melendugno LE, Italy",315.0
445,Piazza Della Liberta,40.3025953,18.4007032,ChIJM7X9dLc3RBMRNdSe7tFMCpI,San Foca,5.0,"Via Giuseppe Garibaldi, 73026 San Foca LE, Italy",1.0
446,Typhoon da Pippi,40.2733864,18.4216935,ChIJAxFfCs83RBMR4ZiFyy5ZfkY,Torre dell'Orso,4.0,"Via San Giovanni N.21, Piazza della Luna, 73026 Torre dell'Orso LE, Italy",4.0
447,Casa dell'acqua,40.1293193,18.2021019,ChIJFSqq_DAZRBMRMJ9iXBU5KbU,Cutrofiano,0.0,"Corso Piave, 127A, 73020 Cutrofiano LE, Italy",0.0
448,Centro sociale per minoranze LGBT+,40.1912166,18.2007249,ChIJAZbMMzUjRBMR0tX9oXhEKtI,Soleto,0.0,"V.le Nenni, 15, 73010 Soleto LE, Italy",0.0
449,LUX,45.0085364,9.6711539,ChIJzd_ySaDDgEcRrYG5ojOEfOs,Piacenza,3.7,"SS45, 81, 29122 Piacenza PC, Italy",105.0
450,Village 2.0,45.0077563,9.670499099999999,ChIJjWOvRI_CgEcRiDyk67Vmmq8,Piacenza,4.0,"Strada Statale 45 di Val di Trebbia, 81, 29122 Piacenza PC, Italy",50.0
451,Discoteca Sala Da Ballo Revolution,44.7109476,9.5695109,ChIJtSBYXeSjgEcRprFYSkJc_NY,Farini,5.0,"Via Don Sala, 10, 29023 Farini PC, Italy",4.0
452,SONNAMBULA,44.8979385,9.6049274,ChIJ7TKx37zBgEcRIQOgFOVO_Nk,Rivergaro,3.7,"Rivergaro località ceresole, 29029 Rivergaro PC, Italy",6.0
453,Pathos,45.0144712,9.5660103,ChIJD4ULhPTFgEcRnGzzP2yiv3k,Gragnano Trebbiense,0.0,"Via Centro Sportivo, 11, 29010 Gragnano Trebbiense PC, Italy",0.0
454,LOCASTRIP,44.9609393,9.5496836,ChIJdeblpW_HgEcRPxY2dPN5B_c,Gazzola,5.0,"29010 Gazzola, Province of Piacenza, Italy",2.0
455,Avila,44.9626307,9.5859629,ChIJZVrvuj_BgEcRa0Z3I_TQpc4,Rivalta Trebbia,4.0,"Località Casa Fontana, 40, 29010 Rivalta, Gazzola PC, Italy",266.0
456,Moder Disco,44.9143591,9.785327599999999,ChIJV4CH2_7sgEcRdq7LHW-bTyg,Carpaneto Piacentino,3.9,"Via G. C. Rossi, 10, 29013 Carpaneto Piacentino PC, Italy",170.0
457,Giardino Hawaii Podenzano,44.9559023,9.6862221,ChIJBWrAPeXrgEcR4_FBsPccgqw,Podenzano,0.0,"29027 Podenzano, Province of Piacenza, Italy",0.0
458,Athena Live Club,44.87131249999999,9.6453531,ChIJVRDgbwuVgEcRs3QoG_mj67k,Ponte dell'Olio,4.7,"Via A. Zanotti, 6/8, 29028 Ponte dell'Olio PC, Italy",13.0
459,Marameo Srl,44.91099,9.59666,ChIJF2mWaozAgEcRcN89IBwldGA,Rivergaro,1.0,"45, Localita' Ceresole Bassano, Rivergaro, PC 29029, Italy",1.0
460,Citronella Party Ingresso,40.0877732,18.0119765,ChIJ3y---i-nRhMR1W7gE_E5l_M,Gallipoli,4.0,"73014 Rivabella Province of Lecce, Italy",1.0
461,Pied-à-terre Di Sugar,40.1316878,18.1274664,ChIJA111eH8fRBMRb8rvoX0h7Dw,Aradeo,0.0,"Via Armando Diaz, 23, 73040 Aradeo LE, Italy",0.0
462,Mambo Italiano,40.10089130000001,18.0204014,ChIJt_SmY8mgRhMRoVpwNeb6gLI,Sannicola,4.2,"S. Maria al B., 5, 73014 Conchiglie-Alto Lido LE, Italy",89.0
509,Vanilla Club,40.7123597,14.7050839,ChIJI2f2Ft7AOxMRpffoXeyolsg,Cava de' Tirreni,3.5,"Via XXV Luglio, 83, 84013 Cava de' Tirreni SA, Italy",43.0
463,perfetto giuseppe disco bar piazza luna torre dell'orso,40.27409309999999,18.4219602,ChIJAZ37EgJIRBMRhEljeFrmRBQ,Torre dell'Orso,0.0,"Piazza della Luna, 73026 Torre dell'Orso LE, Italy",0.0
464,Torre Suda Bar,39.9506575,18.0322313,ChIJIxIFOumpRhMRhHTpk2pVY3w,Racale,4.4,"Via Marco Polo, 1, 73055 Torre Suda LE, Italy",189.0
465,Fuorirotta,40.1544435,18.4895035,ChIJ904g3xZBRBMR015o2Hnzj3E,Otranto,4.3,"Via Antonio Sforza, 7, 73028 Otranto LE, Italy",491.0
466,Associazione Magna Grecia Mare,39.9321886,18.3959276,ChIJ62HQuBMNRBMRu1Lt-x80sOI,Tricase,4.7,"73030 Tricase Porto, Tricase Province of Lecce, Italy",13.0
467,club QUEEN'S,40.1070858,18.1168749,ChIJJ7yKr-keRBMRiWc9CDL0bFs,Neviano,0.0,"Piazza Concordia, 5, 73040 Neviano LE, Italy",0.0
468,Amnesia Green Park,40.11972859999999,18.4338242,ChIJNX03snFBRBMRByo2MEgKCIg,Giurdignano,4.8,"Via Salvo D' Acquisto, 73020 Giurdignano LE, Italy",19.0
469,Club 84 Lounge Bar-Music House,40.12307270000001,18.2988998,ChIJaW9WoSUWRBMRddGFXasn0_w,Maglie,3.8,"Via Giulio de Giuseppe, 51, 73024 Maglie LE, Italy",4.0
470,Satir,44.1142852,15.2295338,ChIJn3p-x2r7YUcRkpAgk1S734k,Zadar,0.0,"Poljana Zemaljskog odbora, 23000, Zadar, Croatia",0.0
471,Tutta Forza,43.9378506,15.1538465,ChIJ60zcOuetNBMRDeEhg7pndSU,Općina Sali,4.9,"VII Ul, 23281, Sali, Croatia",101.0
472,Opera Club Zadar,44.1109205,15.2335398,ChIJSyrmV5D7YUcRimJTYCAfGGA,Zadar,4.2,"Obala kralja Tomislava 1, 23000, Zadar, Croatia",339.0
473,Cromie Disco,40.4878154,16.9489163,ChIJ_5TSNI4SRxMRxTYQukGo_20,Castellaneta,4.4,"74011 Castellaneta, Province of Taranto, Italy",364.0
474,Clorophilla Club,40.5322027,16.9217159,ChIJZUCbTzANRxMR86i4wohTDng,Castellaneta,4.5,"74011 Castellaneta Province of Taranto, Italy",347.0
475,Nafoura,40.532942,16.9230386,ChIJqy5apOcKRxMRvpN-6pIHjuM,Castellaneta,4.2,"Contrada Chiulli, 74011 Castellaneta TA, Italy",144.0
476,Sound Department,40.427152,17.239967,ChIJy82kIeMcRxMRjTBMXZxsUaw,Taranto,4.4,"Viale Jonio, 158, 74121 Taranto TA, Italy",212.0
477,Kabana,40.462644,16.9375798,ChIJ4Z6mNS4TRxMRRjwbga9lnYs,Castellaneta,4.2,"Lungomare Eroi del Mare, 198, 74011 Castellaneta Marina TA, Italy",27.0
478,Pianoterra 2.0,40.5865574,17.1107097,ChIJ4XbasS8GRxMRZ4wjLXVHBcI,Massafra,4.2,"Via la Terra, 121, 74016 Massafra TA, Italy",9.0
479,Historic Club 73,40.4270753,17.2399917,ChIJnWmbiR0dRxMR971yVFG8k-0,Taranto,4.1,"Viale Jonio, 158, 74121 Taranto TA, Italy",16.0
480,Bacomè,40.4152827,17.2052834,ChIJX93LeckdRxMR975AW1e418I,Taranto,4.0,"Via del Faro, 102, 74122 Taranto TA, Italy",62.0
481,Mood Music Project,40.427152,17.239967,ChIJb83CIOMcRxMRWJCb6y88KCQ,Taranto,4.7,"Viale Jonio, 158, 74121 Taranto TA, Italy",6.0
482,Waikiki,40.4270169,17.2399926,ChIJRUWzrCMdRxMR9-1ut06PpzM,Taranto,2.7,"Viale Jonio, 158, 74122 Taranto TA, Italy",7.0
483,Show Down Club,40.46257079999999,17.2699546,ChIJN1TQSrgCRxMRWFAG2f_B45Y,Taranto,0.0,"Viale Magna Grecia, 117, 74121 Taranto TA, Italy",0.0
484,Ictorland,40.4665384,17.2494025,ChIJjeuAYrkDRxMRtzxkD_C4j4U,Taranto,5.0,"Via G. Oberdan, 73b, 74121 Taranto TA, Italy",1.0
485,Yachting Club Porticciolo,40.41410440000001,17.2038269,ChIJq96FRHocRxMRq_ow9PBfE3Y,Taranto,4.1,"Via Ombrine, 4A, 74122 Taranto TA, Italy",1077.0
486,Caracas one and only,40.47328419999999,17.2389007,ChIJcRN9s0sdRxMRqLxqrODDke4,Taranto,4.1,"Corso Umberto I, 47, 74123 Taranto TA, Italy",23.0
487,Discoteca siulk,40.4912891,16.9204302,ChIJocLcBrESRxMRKcAMZsPRgFs,Castellaneta,0.0,"Strada Provinciale 13, 10, 74011 Castellaneta TA, Italy",0.0
488,Sin City,40.5932391,17.1133062,ChIJb-hqpjIGRxMRTXXXKi6jYhY,Massafra,5.0,"Viale Alessandro Manzoni, 29, 74016 Massafra TA, Italy",1.0
489,La Playa Club bar e NOLEGGIO Sportivo,40.470343,16.9494618,ChIJQc-D3eUTRxMRk_N7kpGxMmk,Castellaneta,4.2,"Lungomare Eroi del Mare S-N, 74011 Castellaneta Marina TA, Italy",291.0
490,Cocomero's,40.4268714,17.2405515,ChIJiXVoajMdRxMRk_nvKRE3Rfc,Taranto,3.5,"Viale Jonio, 160, 74122 Taranto TA, Italy",6.0
491,IL COVO SANTO,40.5858351,17.1141427,ChIJ7RduPq4HRxMRfZEtgUvih84,Massafra,0.0,"Via Matteo Pagliari, 18, 74016 Massafra TA, Italy",0.0
492,Panchine di Zio Guido,40.4622488,17.2662213,ChIJ-89KQG8DRxMRgOjV0ZjbZYU,Taranto,5.0,"Via Dante Alighieri, 400, 74121 Taranto TA, Italy",1.0
493,BYG,40.3831729,17.3272765,ChIJL33X9bbjRhMRg9Pri_Q3Z0Y,Leporano,4.0,"SP100, 74020 bivio annunziata TA, Italy",88.0
494,The Ferrigno's,40.4009639,17.280206,ChIJkegruVIdRxMRsri9Jg_1jTM,Taranto,2.5,"Via Luigi Settembrini, 232/244, 74122 Taranto TA, Italy",2.0
495,PENTIMAROSSA CLUB,40.621004,17.227753,ChIJZ5k7cDerRxMR_b8u3iBrciE,Crispiano,0.0,"Via Pentima Rossa, 74012 Crispiano TA, Italy",0.0
496,La cascina,40.4433365,17.3028205,ChIJf_Ur5FL9RhMR_pKZFX8UYLY,Taranto,3.4,"Via Alberto Sordi, 762/764, 74122 Taranto TA, Italy",82.0
497,Mandarino Club,40.4494689,16.8228232,ChIJaxbaYwNsRxMR7twDIYirdi0,Ginosa,4.3,"Contrada Pantano, 74025 Marina di Ginosa, Ginosa TA, Italy",25.0
498,OASI CLUB,40.571521,16.6883539,ChIJL2U9bSF7RxMRoy2oHuIMdjw,Montescaglioso,0.0,"Masseria D'Alessio, Contrada Murge, 75024 Montescaglioso MT, Italy",0.0
499,Les SouK,40.4523272,16.8098354,ChIJ-UMBGqVuRxMRLcO5jGmljDU,Ginosa,4.7,"s.c. Montedoro, c.da. Pantano, Strada Comunale Monteodoro, 74013, 74013, 74013 Marina di Ginosa TA, Italy",17.0
500,Elephant Park - Puglia,40.4592667,16.8755257,ChIJIy-mioxtRxMRXSs-PTimVWY,Ginosa,3.6,"Contrada Pizziferro, 74013 Marina di Ginosa TA, Italy",94.0
501,Summer Pub,40.4673919,16.9377443,ChIJY5ugFI4TRxMRZ3oIiciRDjo,Castellaneta,0.0,"Piazza Kennedy, 74011 Castellaneta TA, Italy",0.0
502,Brix,40.6231044,16.7949607,ChIJgX-bSJV2RxMRXL-uN6H05BQ,Laterza,4.8,"Via Concerie, 98, 74014 Laterza TA, Italy",36.0
503,Apus Event,40.64565839999999,17.0001167,ChIJ9e3QnqULRxMRFcc0rtVD2Vc,Mottola,0.0,"SP27, 18, 74017 Mottola TA, Italy",0.0
504,BEER SHOP 23,40.798013,16.9220063,ChIJ47yfeWGjRxMRIOoJU5POuKo,Gioia del Colle,0.0,"Via Marte, 16, 70023 Gioia del Colle BA, Italy",0.0
505,Faro Project S.r.l.,40.41375,17.20359,ChIJV7FIRHocRxMR48Bs43e127M,Taranto,1.0,"Via Ombrine, 6, 74100 Taranto TA, Italy",1.0
506,Il Caffè Del Mare,40.383602,17.3032151,ChIJrwvoFRLiRhMR0LRfAZjILKE,Leporano,4.1,"SP100, 1578, 74020 Leporano Marina TA, Italy",545.0
507,Arena Mycenaean,40.3564805,17.3542586,ChIJV3r87lDhRhMR1Evo1ksdAA0,Leporano,4.2,"Viale dei Micenei, 7/D, 74026 Marina di Pulsano TA, Italy",41.0
508,Bog.Art 007,40.68152430000001,14.7653397,ChIJRz-16jHCOxMR4Rya0-MJQ9M,Salerno,4.3,"Via Michele Vernieri, 65, 84125 Salerno SA, Italy",4.0
510,Sol Levante La Discoteca,40.8175575,14.6096632,ChIJc9nJhdK5OxMRlBcz08NHNFA,Sarno,0.0,"Via Cannellone, 22, 84087 Sarno SA, Italy",0.0
511,Rocce Rosse,40.6713302,14.7350716,ChIJD8E0ruzBOxMRiOjgR12FPa4,Salerno,3.8,"Via Enrico de Marinis, 2, 84019 Vietri sul Mare SA, Italy",605.0
512,Music On the Rocks,40.6274163,14.4893975,ChIJOfSRY2mXOxMR6raLGNfFosU,Arienzo,3.6,"Località Grotte Dell'incanto, 51, 84017, Positano SA, Italy",543.0
513,Revolution Disco Club,40.7718315,14.6108214,ChIJB5vcNx65OxMRfCoYPlQrxl4,Pagani,4.1,"Via Zeccagnuolo, 31, 84016 Pagani SA, Italy",712.0
514,Sala plaza,40.756355,14.533501,ChIJgyGJLHa8OxMRM7kFGml-p54,Scafati,5.0,"Via Giuseppe Dossetti, 80050 Scafati NA, Italy",1.0
515,61club,40.724986,14.7502722,ChIJ1b8kgDbCOxMRP22Zl7Aw348,Pellezzano,3.5,"Via San Giovanni, 1, 84080 Pellezzano SA, Italy",6.0
516,Sciuscia Club,40.8158333,14.3766667,ChIJT-OwioCmOxMRKWbD3hRAmzo,Ercolano,4.1,"Via Viulo, 2, 80056 Ercolano NA, Italy",91.0
517,Il Vizietto,40.7428944,14.6365927,ChIJY2b4lUq_OxMR9OrZ3iBujI8,Nocera Inferiore,4.0,"Corso Vittorio Emanuele II, 128, 84014 Nocera Inferiore SA, Italy",1.0
518,Dissonanze DSSZ,40.7513028,14.7783852,ChIJI79pR3XFOxMRf5pPAhXgFnw,Baronissi,4.2,"Via Salvador Allende, 46/H, 84081 Baronissi SA, Italy",109.0
519,LIF Club - Eventi Privati,40.8414225,14.3732352,ChIJy1Af0wSnOxMRED3LW4dQ8iY,San Sebastiano al Vesuvio,4.6,"Viale Alessandro Volta, 7, 80040 San Sebastiano al Vesuvio NA, Italy",81.0
520,Solluan,40.7050311,14.7063887,ChIJwSRxsQLBOxMRJf9GGcRAwQo,Cava de' Tirreni,4.4,"Via Vittorio Veneto, 29/b, 84013 Cava de' Tirreni SA, Italy",44.0
521,Officina 249 Discoclub,40.7332136,14.6853562,ChIJGyitMAHBOxMRW40lblpK3tA,Nocera Superiore,4.0,"Via Nazionale, 127, 84015 Nocera superiore SA, Italy",414.0
522,Karamú,40.7498102,14.5239296,ChIJfVbbvHy8OxMRTIk6ZzJHHrI,Scafati,4.7,"Via Brunelleschi, 14, 84018 Scafati SA, Italy",6.0
523,Video Fantasy,40.64932719999999,14.6366995,ChIJkV-y80GVOxMRvCS5-wNDztE,Maiori,3.0,"Via Amendola, 30B, 84010 Maiori SA, Italy",3.0
524,Mediterraneo,40.680604,14.759002,ChIJGbfIJC_COxMRpr2bg1rp8HI,Salerno,4.7,"Via delle Botteghelle, 59, 84121 Salerno SA, Italy",6.0
525,Club privé Adrenalina,40.8237107,14.5588472,ChIJVxxMORm6OxMRkj_5rWxw73k,Striano,3.3,"Strada Provinciale Pataffio, 7, 80040 Poggiomarino NA, Italy",23.0
526,Buccaneer Rum,40.9263748,14.5281619,ChIJHWs-KdCzOxMRIbFGWgfhDoE,Nola,4.9,"Via Duomo, 7, 80035 Nola NA, Italy",9.0
527,Centro Estetico Talsano,40.4049557,17.2831904,ChIJZyew9YMdRxMRvVnpQxk9Hes,Taranto,5.0,"74122 Taranto, Province of Taranto, Italy",2.0
528,sala the show must go on,40.4599863,17.3602237,ChIJUQeVJuv8RhMROal01kwVPYQ,San Giorgio Ionico,5.0,"Via Roma, 74027 San Giorgio Ionico TA, Italy",1.0
529,Balera Brindisi - Club da Rosa,40.6269237,17.534406,ChIJlcGCzYVZRhMRyGlJO36T3pg,Ceglie Messapica,4.2,"SP26, 27, 72013 Ceglie Messapica BR, Italy",122.0
530,ROCK METAL FEST,40.3904781,17.3537758,ChIJK3EjD8rjRhMRWnUTXUBTpL0,Pulsano,4.7,"Via Taranto, 65, 74026 Pulsano TA, Italy",23.0
531,Discoteca La Storia,41.1060917,14.3058991,ChIJ9_PUqAtWOhMRHVupElE2RIM,Caserta,4.0,"SS87 Sannitica, 85, 81100 Caserta CE, Italy",161.0
532,"Sirius Club - Discoteca, Ristorante per eventi",41.062015,14.6406141,ChIJW_SMDPRJOhMRI7RgA1trLSk,Montesarchio,4.0,"Via Giovanni Amendola, 7, 82016 Montesarchio BN, Italy",107.0
533,Crystal Club,41.0393769,14.3252502,ChIJ07dN74tVOhMRENOmC8rveGQ,San Nicola La Strada,5.0,"Viale Carlo III, Km 22/300, 81020 San Nicola la strada CE, Italy",1.0
534,Sambhe Music Club,41.0612076,14.7139126,ChIJfY3Mdo82OhMRUJyFSQAFF0M,Ceppaloni,4.1,"SP43, 18, 82010 Tressanti BN, Italy",46.0
535,Villa Quisiama,41.0677194,14.5536524,ChIJURbaoa5NOhMR1QSJXyFLvYE,Airola,0.0,"82011 Airola, Province of Benevento, Italy",0.0
536,blackcat music club,41.0716065,14.3189628,ChIJhw82MqVVOhMRnJov4cBYTwk,Caserta,1.0,"Via Santa Chiara, 28, 81100 Caserta CE, Italy",1.0
537,Mono Club Caserta,41.0736187,14.3306207,ChIJZYRD3KVVOhMRCNbgd5P8fBY,Caserta,4.0,"Via Salvatore Maielli, 11, 81100 Caserta CE, Italy",23.0
538,C'era Una Volta in America,41.06750479999999,14.3240137,ChIJwYRETghVOhMRWQUZEW3ftIk,Caserta,4.2,"Viale Enrico Mattei, 6, 81100 Caserta CE, Italy",888.0
539,Never Night Di Valentino Pietro,41.0871301,14.3311957,ChIJP0R858xVOhMRjX1XJL_i68I,Caserta,4.0,"Via Gennaro Tescione, 121, 81100 Caserta CE, Italy",2.0
540,Zuccchero A.Velo,41.0616726,14.557153,ChIJKzVbIZ5NOhMRXoafM9dRXA0,Airola,5.0,"Corso Montella, 41, 82011 Airola BN, Italy",4.0
541,Lizard Club,41.0622122,14.3629123,ChIJpfsHGFhVOhMR6EkfwokJA-w,Caserta,4.3,"SS7, 12, 81100 Caserta CE, Italy",117.0
542,Nowhere Gallery Caserta,41.0622044,14.3636089,ChIJORoeo2VUOhMRTE7k5aoMIMk,Caserta,4.2,"SS7, 12, Km 218, 81100 Caserta CE, Italy",197.0
543,Xuè,41.0731509,14.6381183,ChIJw4Xz_uxJOhMRaVlsHPxC9-E,Montesarchio,4.3,"Via Cirignano, 82016 Montesarchio BN, Italy",113.0
544,Giulia Music Experience,41.0405167,14.3268133,ChIJFeeBxphVOhMRa4lRo2pbHho,San Nicola La Strada,3.2,"Viale Carlo III di Borbone, 81020 San Nicola la strada CE, Italy",5.0
545,Play & Win Caserta,41.05956219999999,14.367493,ChIJ3YcqRmNUOhMR8xY_I9zHm8s,Caserta,3.3,"SS7, 43, 81100 San Clemente CE, Italy",3.0
546,Sugary Cornetteria,41.0635497,14.6377734,ChIJk3uZ-_RJOhMRoREmvA6tgMU,Montesarchio,4.3,"Piazza Carlo Poerio, 3, 82016 Montesarchio BN, Italy",13.0
547,Smile Disco Bar,41.0542635,14.6187861,ChIJa75BEi5KOhMRPWzacP5TYsg,Montesarchio,4.5,"SS7, 82016 Montesarchio BN, Italy",11.0
548,KINGSTON Club,41.05343999999999,14.333584,ChIJJ53wkP1UOhMRs5oneOlR2kc,San Nicola La Strada,3.5,"Via Appia, 17, 81020 San Nicola La Strada CE, Italy",6.0
549,Femina,41.04374869999999,14.3254625,ChIJw9vOSB5VOhMRHMyF6dqGTwo,San Nicola La Strada,3.9,"Via Sandro Pertini, 3, 81020 San Nicola la strada CE, Italy",11.0
550,Roy Show Club,41.05172770000001,14.6090845,ChIJNzAhM89LOhMRYcBnm_Y0RFg,Rotondi,4.3,"Strada Statale Km. 240,300, 83017 Rotondi AV, Italy",493.0
551,Le Venery Night Club,41.0561842,14.326269,ChIJS-hFqv1UOhMR2rjbozjmxa0,San Nicola La Strada,3.8,"Viale Carlo III di Borbone, 7, 81020 San Nicola La Strada CE, Italy",6.0
552,Factory Pub,41.1132571,16.8643111,ChIJ92WN9_foRxMR8PYfoWBrCl0,Bari,4.5,"Via Luigi Milella, 33, 70124 Bari BA, Italy",1649.0
553,Hop!,41.1163317,16.8661977,ChIJt-pnlljoRxMRJDo02JrHJS0,Bari,4.3,"Via Gaetano Devitofrancesco, 11, 70124 Bari BA, Italy",1133.0
554,Crossroad Saloon,41.10036179999999,16.8849624,ChIJfTBuFEvoRxMRv4SzKiltxqk,Bari,4.2,"Via Nicola Tridente, 15/21, 70125 Bari BA, Italy",1327.0
555,Cavanbah Pub,41.1282955,16.8722956,ChIJO9w5amToRxMR1ozmLTff3ns,Bari,4.3,"Piazza Mercantile, 66, 70122 Bari BA, Italy",340.0
556,Steam pub,41.095603,16.8720979,ChIJI1FNw67pRxMRkbSen7Ef8UM,Bari,4.3,"Via Alberotanza, 11, 70125 Bari BA, Italy",1090.0
557,Joy's Pub,41.1191232,16.8830262,ChIJq0noHkLoRxMRkIrC6UbIzIM,Bari,4.1,"Corso Sidney Sonnino, 118/D, 70121 Bari BA, Italy",753.0
558,"The Stuart, Scottish Pub",41.1189574,16.8864541,ChIJbVp4OkDoRxMRuDrubqcJtrQ,Bari,4.6,"Via Dalmazia, 173, 70126 Bari BA, Italy",1019.0
559,OFFICINA PUB BIRRERIA,41.0038962,16.8651762,ChIJk_hPit_qRxMRtDyo61aEnnM,Adelfia,4.4,"Via Santa Maria della Stella, 84, 70010 Adelfia BA, Italy",597.0
560,Windigo Saloon,41.103222,16.8581866,ChIJlUPDFwLpRxMR0Jf58kg_MF8,Bari,4.6,"Via Mauro Amoruso Manzari, 31, 70124 Bari BA, Italy",345.0
561,LAB - L'Ardito Birraio,41.027487,16.996932,ChIJoZD_ikjBRxMRFo-C2EmWJpE,Noicattaro,4.8,"Via Carlo Pisacane, 52, 70016 Noicattaro BA, Italy",505.0
562,Malto's Beer,41.0954929,16.8656236,ChIJswFPLqjpRxMRObJQgBmYtW4,Bari,4.0,"Via Aurelio Carrante, 1/B, 70124 Bari BA, Italy",953.0
563,BurBeero - Independent Pub - craft beer - birra artigianale,41.1270376,16.8663939,ChIJb1pLSpfpRxMRpCrRu2igJqw,Bari,4.6,"Piazza Giuseppe Massari, 27, 70122 Bari BA, Italy",234.0
564,The Garrison Public House Bari,41.121094,16.8660438,ChIJLx6TVAHpRxMRp9UjQ3syJMg,Bari,4.5,"Via Domenico Nicolai, 70122 Bari BA, Italy",48.0
565,Burp,41.0984691,16.8525236,ChIJ2yfnMNLpRxMR1QIPRhM8Uks,Bari,4.4,"Via Enrico Pappacena, 4/C, 70124 Bari BA, Italy",432.0
566,Birrbante,41.1002125,16.844959,ChIJNQ2zCVzoRxMRZ9DB_6Qtf3Q,Bari,3.9,"Via Marco Partipilo, 62, 70100 Bari BA, Italy",1325.0
567,Pellicano Pub,41.0950164,16.8774623,ChIJ-2UUnbHpRxMR5rj2t5AxZLg,Bari,3.8,"Via Alberotanza, 41, 70125 Bari BA, Italy",556.0
568,Dexter Beer and Jazz,41.0881749,16.8651486,ChIJL-Mnp6DpRxMRRigQ15PV6vQ,Bari,4.1,"Via G. Petroni, 127, 70124 Bari BA, Italy",1237.0
569,Fermento - Beershop,41.1064364,16.8779386,ChIJ8559MALpRxMRkUPc8kLAJf8,Bari,4.5,"Via Giulio Pastore, 201/4, 70124 Bari BA, Italy",276.0
570,Barrelhouse,41.1283183,16.8722092,ChIJkV0Na2ToRxMR1QWhYdJsz8s,Bari,3.8,"Piazza Mercantile, 70122 Bari BA, Italy",11.0
571,Keller Pub Bari - Bistropub & Hamburgeria,41.0942239,16.8655573,ChIJLwVTGqjpRxMRNsZIv4q4xdY,Bari,4.4,"Via Aurelio Carrante, 21, 70124 Bari BA, Italy",513.0
572,TNT - Tap'n'Table,41.0953104,16.8720534,ChIJKYj13q7pRxMRO3Wuk-9pMkk,Bari,4.2,"Via Divisione Paracadutisti della Folgore, 7, 70125 Bari BA, Italy",987.0
573,Taverna del Maltese,41.121074,16.8664834,ChIJ-UJjll_oRxMR0UYRDlAzFRM,Bari,4.1,"Via Domenico Nicolai, 67, 70122 Bari BA, Italy",746.0
574,Gulp,41.0987386,16.8525687,ChIJSX1_HxvpRxMR69jUJDAcAic,Bari,4.5,"Via Enrico Pappacena, 4/G - 24/A - 26, 70124 Bari BA, Italy",1980.0
575,Terzotempo,41.1125859,16.8729282,ChIJjfdMcFroRxMRdBCfzwcCHAk,Bari,4.1,"Via Alessandro Volta, 6, 70125 Bari BA, Italy",548.0
576,#Gusto87,41.12295410000001,16.8642017,ChIJV16YsoroRxMRavAltmFn6f8,Bari,3.4,"Via Quintino Sella, 87, 70122 Bari BA, Italy",8.0
577,Timeout - Play Around Food,41.08967579999999,16.8835213,ChIJWfJg7rnpRxMRXZkAb_QSO6A,Bari,4.1,"Via Giuseppe Fanelli, 285C, 70125 Bari BA, Italy",2674.0
578,In Bocca al Luppolo,41.1272008,16.8709712,ChIJqSAQAGToRxMRPY6GGIynMXk,Bari,3.9,"Strada dè Gironda, 18, 70122 Bari BA, Italy",427.0
579,eKoiné ri-pub,41.1077208,16.8637796,ChIJ7b75Rv_oRxMRrp2UVBvUmw0,Bari,4.1,"Via A. De Ferraris, 49 abc, 70124 Bari BA, Italy",826.0
580,Wild & Free,41.1108857,16.8729051,ChIJn4HTxoDpRxMRFAlIpbYRweM,Bari,5.0,"Via Pasquale Fiore, 2, 70125 Bari BA, Italy",678.0
581,Statt,41.0112233,17.0063128,ChIJ-1B29QbBRxMRTnNmNUR5GwM,Rutigliano,4.7,"P.za XX Settembre, 25, 70018 Rutigliano BA, Italy",234.0
582,Tempi Andati,41.0994362,16.8811704,ChIJ592NTGXpRxMRPoZyknMT5LE,Bari,4.3,"Via Demetrio Marin, 37, 70125 Bari BA, Italy",268.0
583,Tropicana Pub Bari,41.1161381,16.8619354,ChIJ_8X__fboRxMRv_MyN9M0xyk,Bari,4.0,"Via Giuseppe Albanese, 18, 70124 Bari BA, Italy",633.0
584,Oktoberfest Pub,41.0981254,16.8513852,ChIJi0JxxQTpRxMR3L10xjiaB9o,Bari,4.1,"Via Edmondo Caccuri, 59, 70124 Bari BA, Italy",1045.0
585,Corvo Torvo,41.1068532,16.6911332,ChIJndCL-ZbxRxMR9EmA7CBo7Qk,Bitonto,4.2,"Via Vittorio Alfieri, 7, 70032 Bitonto BA, Italy",363.0
586,Sciabadaus,41.1060938,16.6893778,ChIJE02m7IbxRxMRKVTyU9VoxzM,Bitonto,4.6,"Piazza Cattedrale, 17, 70032 Bitonto BA, Italy",37.0
587,Turnover Gaming Pub,41.1105578,16.8747743,ChIJPRJmmT_pRxMRFIcXl2kgx54,Bari,4.4,"Via Guido de Ruggiero, 38, 70125 Bari BA, Italy",218.0
588,Le Officine Clandestine,41.11071219999999,16.8754542,ChIJQ-rMS1npRxMREqDAJqs5aos,Bari,4.4,"Via Giuseppe Zanardelli, 54, 70124 Bari BA, Italy",1285.0
589,Barcollo,40.9589415,16.9178359,ChIJ32t4seC_RxMR4DL0GMQ9wtU,Casamassima,4.3,"Via Dante Alighieri, 1/H, 70010 Casamassima BA, Italy",254.0
590,Blue Eyes,41.1149846,16.8743234,ChIJ_zSVDlvoRxMRhXF7PXixv8o,Bari,4.4,"Via Francesco Muciaccia, 1, 70125 Bari BA, Italy",808.0
591,Solito Posto,41.107249,16.6913892,ChIJJ1afqpfxRxMRwMxxU4-ojTI,Bitonto,4.2,"Piazza Camillo via vincenzo rogadeo 28Benso, Piazza Camillo Benso Conte di Cavour, 27, 70032 Bitonto BA, Italy",310.0
592,Jerusalem,41.1165214,16.8637485,ChIJ1SnAOPboRxMRrwv-6DsYtJU,Bari,3.7,"Via Giuseppe Capruzzi, 268b, 70124 Bari BA, Italy",468.0
593,Demetra Pub,41.1094478,16.8633637,ChIJUQ6KwfjoRxMRW-X4bEe2lmw,Bari,4.1,"Via Giuseppe Maria Giovene, 12, 70123 Bari BA, Italy",527.0
594,Trappistventotto,41.1884421,16.6740834,ChIJU-gTUmD6RxMRvGcDPxP5Keo,Giovinazzo,4.4,"Via Spirito Santo, 28, 70054 Giovinazzo BA, Italy",270.0
595,BarLume - Rock Bar,41.1288861,16.8715271,ChIJv0oGe2ToRxMRrLRSnmq5GUk,Bari,4.5,"Strada Palazzo di Città, 60, 70122 Bari BA, Italy",107.0
596,Mc Andrew - Country Pub,41.05642960000001,16.8824254,ChIJFcBEASTqRxMRNZMJQPHVTXI,Valenzano,4.1,"Via Bari(Complanare Sinistra), 204, 70010 Valenzano BA, Italy",420.0
597,Bourbon Street,41.1165712,16.8644304,ChIJrW_qJPboRxMRkzWzXUZGmzk,Bari,4.3,"Via Giuseppe Capruzzi, 262, 70123 Bari BA, Italy",409.0
598,MACONDO - Pub Indipendente e Bistrot,41.0825119,16.7826271,ChIJkZMoOpaWRxMReZ4x4kFetQQ,Modugno,4.2,"Via Cairoli, 3/5, 70026 Modugno BA, Italy",578.0
599,La Bitta 2,41.1281259,16.8730036,ChIJcXbxamToRxMRCkA1KqOI1c4,Bari,4.6,"Via Re Manfredi, 36, 70122 Bari BA, Italy",517.0
600,Birrificio Mojé,41.1039359,16.8669614,ChIJowvUCWfpRxMR0k7ysGneKds,Bari,4.5,"Via G. Petroni, 87/5, 70124 Bari BA, Italy",439.0
601,On-Off Stutalacapa,41.0869741,16.9986956,ChIJ12rMbHnDRxMRN7zb2vDN1ew,Bari,4.6,"Via di Torre a mare Monte Grappa, 7/9, 70126 Bari BA, Italy",365.0
647,Ludi84,40.8266771,16.5530971,ChIJ_27FzgiHRxMR_L6r8PkEupQ,Altamura,4.6,"Via Diego Franco, 20, 70022 Altamura BA, Italy",96.0
602,🍻 Mosaic - Urban Beer Art 🍔,41.1242137,16.8647398,ChIJyV17NB3pRxMRzFTdW8zgpxY,Bari,4.4,"Via Abate Giacinto Gimma, 164, 70122 Bari BA, Italy",93.0
603,WILD BAR,41.0094419,17.0047658,ChIJWRTokCzBRxMRfKLia2nPOLQ,Rutigliano,4.5,"Via porta nuova 11, Via Porta Nuova, 9, 70018 Rutigliano BA, Italy",128.0
604,Bar Pub Pizzeria Rose and Crowns,41.0353311,16.9828306,ChIJsQg5HmjBRxMRZQ6rTe-q_kY,Noicattaro,4.0,"Via Giuseppe Mazzini, 45, 70016 Noicattaro BA, Italy",25.0
605,Birreria La Farmacia dei sani,41.1229161,16.8683119,ChIJRRnrhmDoRxMRVYLPlHijJRA,Bari,4.3,"Via Roberto da Bari, 104, 70122 Bari BA, Italy",386.0
606,Berravia,41.1638643,16.7525675,ChIJTwQBUWHlRxMR-cyQ6dF4sGU,Bari,4.6,"Lungomare Cristoforo Colombo, 22, 70127 Bari BA, Italy",251.0
607,Beer-OZ Il Mago della Birra,41.0860753,16.7796216,ChIJLWm5d4XuRxMR6xDF1mImzy4,Modugno,3.5,"Via de Feo, 9, 70026 Modugno BA, Italy",8.0
608,Carnage Public House,41.1842349,16.66114,ChIJIw14XiH7RxMR0Ns2ieeSnW0,Giovinazzo,4.7,"Via degli Impagliatori, 16, 70054 Giovinazzo BA, Italy",171.0
609,Central Pub,40.666991,16.6031315,ChIJU_o25OB-RxMR6GVY8OryGmY,Matera,4.4,"Vico II Don Minzoni, 2, 75100 Matera MT, Italy",532.0
610,Old River Pub di Cataldi Angela & C. SAS,40.8191223,16.4329793,ChIJfSa73Pl7OBMR_TNH-4L9knQ,Gravina in Puglia,4.4,"Via Filippo Neri, 19, 70024 Gravina in Puglia BA, Italy",1113.0
611,Upper Wall Pub,40.835298,16.5577386,ChIJEUWk-p-HRxMRVLnsY6JzfTQ,Altamura,4.4,"Via la Carrera, 118, 70022 Altamura BA, Italy",578.0
612,Gallery Pub,40.8204188,16.4190094,ChIJDwctnPR7OBMRmYkB3ige3X0,Gravina in Puglia,4.5,"Via Antonio Punzi, 38, 70024 Gravina in Puglia BA, Italy",307.0
613,Talking in Town Pub,40.81876889999999,16.4275324,ChIJ61sbRvd7OBMRLhotmDNd_YI,Gravina in Puglia,4.3,"Via Forlì, 37, 70024 Gravina in Puglia BA, Italy",821.0
614,Little Public House,40.8194897,16.4252539,ChIJwc5SiPLoRxMRXx9q4g1MuSk,Gravina in Puglia,4.3,"Via Vincenzo Ragni, 179, 70024 Gravina in Puglia BA, Italy",232.0
615,Ayers Rock Pub,40.8240414,16.4228351,ChIJtTPbHfJ7OBMR4JR34_j2u7c,Gravina in Puglia,4.3,"Via Ludwig Van Beethoven, 18, 70024 Gravina in Puglia BA, Italy",206.0
616,Black Sheep Country Pub,40.88319910000001,16.763718,ChIJOQCwrayRRxMR6rAFPxJY7TA,Cassano delle Murge,4.1,"Via Carmelo Colamonico, 76, 70020 Cassano delle Murge BA, Italy",1445.0
617,14th American Pub,40.6616782,16.6096745,ChIJRc8A0d9-RxMRmPoZXSuSWEY,Matera,4.5,"Via Lucana, 210, 75100 Matera MT, Italy",555.0
618,Sherwood,40.8353369,16.5526579,ChIJ49sJ_nWHRxMRjILp9f5e2DQ,Altamura,4.4,"Via Caduti di Via Fani, 3, 70022 Altamura BA, Italy",760.0
619,Victorian Living Pub,40.7884317,16.7541894,ChIJp11qcRObRxMRcBtl5OhPTa0,Santeramo in Colle,4.2,"Via Socrate, 62, 70029 Santeramo In Colle BA, Italy",429.0
620,Overflow,40.8138732,16.5485474,ChIJFZKW5UKHRxMRPzy7W4ScL1s,Altamura,4.6,"Via Araldo di Crollalanza, 162/210, 70022 Altamura BA, Italy",54.0
621,Midnight Pub Live Matera,40.6764801,16.5716553,ChIJmdBh5HZ_RxMRFGmnwUJWG98,Matera,4.3,"Via dell'Agricoltura, sn, 75100 Matera MT, Italy",272.0
622,Cream Irish Pub Guinness,40.6771374,16.595285,ChIJBVTSaRt_RxMRhIgIlxChHto,Matera,4.0,"Via L. Da Vinci, 9, 75100 Matera MT, Italy",771.0
623,MidNite's,40.8254866,16.5534069,ChIJw9k5-G2HRxMRwGhJjZCkNIg,Altamura,4.4,"Corso Umberto I, 4a, 70022 Altamura BA, Italy",117.0
624,Servus Birreria,40.7933436,16.7545868,ChIJFZMqHhGbRxMRbPgsivsEBAU,Santeramo in Colle,4.5,"Via Roma, 122, 70029 Santeramo In Colle BA, Italy",307.0
625,Excalibur Pub,40.8171065,16.416953,ChIJ26-TAqF7OBMRZ1cnlG5lSWg,Gravina in Puglia,4.5,"Via Libertà, 5, 70024 Gravina in Puglia BA, Italy",182.0
626,Always pub birreria,40.8326001,16.5588253,ChIJdw6I03SHRxMRY3Z9LNN98h4,Altamura,4.2,"Via Ofanto, 15, 70022 Altamura BA, Italy",188.0
627,Birbacco wine pub,40.8141478,16.5449162,ChIJp3N5BV2HRxMROtSxtlKL7eY,Altamura,4.6,"Via Caduti delle Foibe, 15, 70022 Altamura BA, Italy",1876.0
628,Central Pub,40.6772766,16.5763186,ChIJszjVmMN_RxMRTnvtNGrLu_I,Matera,4.5,"Via Taranto, 75100 Matera MT, Italy",2.0
629,Zen Pub,40.8230813,16.4187468,ChIJC_wVHvN7OBMRtqLBNxGCf0Y,Gravina in Puglia,4.4,"Via Annibale Moles, 123, 70024 Gravina in Puglia BA, Italy",434.0
630,Artizen,40.8381965,16.5651485,ChIJUeljpQqHRxMRl5ltlfgdeTA,Altamura,4.3,"Via Bari, 194, 70022 Altamura BA, Italy",482.0
631,Birfoot Birrificio Artigianale,40.67660679999999,16.5994058,ChIJJ8SmWBl_RxMRw1i6uCGmQAQ,Matera,4.6,"Via G. Marconi, 75100 Matera MT, Italy",181.0
632,Clint Urban Kitchen,40.677626,16.5922095,ChIJEwVylgR_RxMR6U_Aw3Z_a50,Matera,4.4,"Via S. Pardo, 107, 75100 Matera MT, Italy",401.0
633,Black Cherry Live Pub,40.8903103,16.7683171,ChIJJbrIWqiRRxMRDapyOXyjJPo,Cassano delle Murge,3.9,"Via Cesare Pavese, 3, 70020 Cassano delle Murge BA, Italy",9.0
634,Kas67 Birreria,40.6619911,16.6102596,ChIJhbKYYdx-RxMRZz_y-TUIHAI,Matera,4.7,"Via Domenico Ridola, 67, 75100 Matera MT, Italy",147.0
635,Bottega Del Luppolo Gastrobirreria Altamura,40.8175219,16.5446312,ChIJC5ImjmeHRxMR--4VOPjCzyI,Altamura,4.4,"Via Almirante, 113, 70022 Altamura BA, Italy",464.0
636,Divina Gula Ristopub,40.8176116,16.41904,ChIJjb3yXzd7OBMRycbJpfz-g8s,Gravina in Puglia,4.0,"Via Canale D'Alonzo, 10, 70024 Gravina in Puglia BA, Italy",125.0
637,Pub Il Leggendario West,40.8185068,16.426409,ChIJfXvjIvd7OBMRzA_A8svpev8,Gravina in Puglia,4.6,"Larghetto Via Casale, Italy",148.0
638,Green Elf,40.7898977,16.7585709,ChIJf5JpBxKbRxMRJxHiVeYjnRw,Santeramo in Colle,4.4,"Via Fausto Coppi, 16, 70029 Santeramo In Colle BA, Italy",846.0
639,Birrificio 79,40.6658833,16.6089873,ChIJnc-s895-RxMRpMGw-pvOzEw,Matera,4.4,"Via delle Beccherie, 54, 75100 Matera MT, Italy",623.0
640,iBirrattieri,40.8146915,16.549055,ChIJJ8TqB4iHRxMR29ltcj4Hjr8,Altamura,4.1,"Via Giovanni Gentile, 5, 70022 Altamura BA, Italy",141.0
641,Stile Libero food&drink,40.8190043,16.4198819,ChIJ8fzS-L57OBMR0JRS-GCs7tQ,Gravina in Puglia,4.6,"Via Emilio Guida, 1A, 70024 Gravina in Puglia BA, Italy",83.0
642,Tielle di Tritto Francesco,40.792494,16.7513556,ChIJwQ7flBabRxMRbWPxdF84EXI,Santeramo in Colle,5.0,"Corso Italia, 276, 70029 Santeramo In Colle BA, Italy",1.0
643,Selavì,40.829279,16.553318,ChIJieYd6HOHRxMRA79HuqZLFDw,Altamura,4.3,"Via Gaetano Recchia Luciani, 31, 70022 Altamura BA, Italy",130.0
644,Clac - Bar la Pineta,40.8229328,16.415776,ChIJu9x1MfN7OBMRyn_OQUfo0_c,Gravina in Puglia,4.5,"Via Ludovico Maiorana, 35, 70024 Gravina in Puglia BA, Italy",134.0
645,Malto&Luppolo,40.6692538,16.6051007,ChIJDXI5DOB-RxMRBnr_gwetdq4,Matera,4.8,"Piazza Cesare Firrao, 25, 75100 Matera MT, Italy",207.0
646,Sapore di Mare - FISH PUB,40.6728019,16.581541,ChIJHdcK7C5_RxMRm8cGItFK1us,Matera,4.8,"Via Vitantonio Conversi, 54, 75100 Matera MT, Italy",124.0
648,The Boulevard,40.6640721,16.6086942,ChIJrxXFLNx-RxMRWxue1TWOvIo,Matera,4.5,"Via Alessandro Volta, 11, 75100 Matera MT, Italy",197.0
649,Punto Gì Risto Pub Gravina,40.826187,16.415985,ChIJNQqYkhl7OBMRN4RUdUCpd3E,Gravina in Puglia,4.4,"Viale Regina Margherita, 97, 70024 Gravina in Puglia BA, Italy",187.0
650,Papilla,40.8173509,16.553091,ChIJz454JGqHRxMR6cJBQ_vx_SY,Altamura,4.2,"Via Locorotondo, 11, 70022 Altamura BA, Italy",524.0
651,Caspubar,40.8351778,16.556823,ChIJK3x73Z-HRxMRCGPjMf2BUjY,Altamura,3.9,"Via la Carrera, Altamura BA, Italy",334.0
652,Degù XXL,40.8370208,16.5541076,ChIJpWQFap6HRxMRdy0t5132Vus,Altamura,4.4,"Via IV Novembre, 120, 70022 Altamura BA, Italy",1047.0
653,Taverna Deluzio,40.8287379,16.5524992,ChIJBY75fHGHRxMR8fExSbEGwgY,Altamura,4.7,"Via Teatro Vecchio, 5, 70022 Altamura BA, Italy",112.0
654,Minnamoro,40.8248202,16.5542696,ChIJjVKNjW2HRxMRLaXG2DhS6tw,Altamura,4.4,"Via Scipione Ronchetti, 25a, 70022 Altamura BA, Italy",354.0
655,Diplomatico Club,40.8277619,16.5241916,ChIJcRlhqet5OBMRSjkBTM3RyV0,Altamura,4.0,"Via dell'Asfodelo, 76, 70022 Altamura BA, Italy",696.0
656,Mosto,40.664176,16.6091429,ChIJzbf6Jdx-RxMRhA4-fZ5BR9g,Matera,4.1,"Via Domenico Ridola, 18, 75100 Matera MT, Italy",206.0
657,AREA 8,40.6629019,16.6102036,ChIJv-Ndadx-RxMRzwRLBhrrmp8,Matera,4.5,"Via Casalnuovo, 15, 75100 Matera MT, Italy",1160.0
658,GROOVE by Hemingway's,40.6674196,16.6054454,ChIJmcfGgeB-RxMRTnpgn9nDCZI,Matera,4.2,"Via Roma, 8, 75100 Matera MT, Italy",410.0
659,Monkey Drink House,40.6660806,16.6101914,ChIJ4es-5qB_RxMR4g7anqhDyyk,Matera,4.5,"Via Duomo, 11, 75100 Matera MT, Italy",265.0
660,El Tablao,40.6684263,16.6043961,ChIJ229A2NZ_RxMRgfc7ezIHFqA,Matera,4.0,"Via Cesare Beccaria, 10, 75100 Matera MT, Italy",59.0
661,Tangram,40.7939782,16.7623969,ChIJ-e6Kdw-bRxMRdM7K-0KQIn8,Santeramo in Colle,4.4,"Via Giorgio la Pira, 22, 70029 Santeramo In Colle BA, Italy",481.0
662,LAB 78,40.89946740000001,16.765623,ChIJD1k_vFeRRxMRIBpvBJZctDg,Cassano delle Murge,3.9,"Via Totò, Lotto 78, 70020 Cassano delle Murge BA, Italy",162.0
663,Porta Centrale - Bistrot,40.8173321,16.4182328,ChIJLT0BfoF7OBMR9V0v0crNVes,Gravina in Puglia,4.6,"Piazza Arcangelo Scacchi, 7, 70024 Gravina in Puglia BA, Italy",354.0
664,Vibì Food&Drink,40.8397325,16.5356593,ChIJX9wswHmHRxMRSna63pPJQp4,Altamura,4.3,"Via per Corato, km 1, SP238, 70022 Altamura BA, Italy",152.0
665,Open Bar,40.8378181,16.5650281,ChIJeW-4sKaHRxMRkcaDacFhgVw,Altamura,4.0,"Via Londra, 7, 70022 Altamura BA, Italy",776.0
666,Bar Valentino - Panzerotto Matera,40.6727668,16.6024155,ChIJZyn5t-J-RxMRf8LywkVeLmk,Matera,4.4,"Via G. Marconi, 1, 75100 Matera MT, Italy",482.0
667,Black Bart pubs,41.2050698,16.5898707,ChIJQ8OAabb5RxMRtzTX2YJFXks,Molfetta,4.4,"Vicolo XV Madonna dei Martiri, 8/10, 70056 Molfetta BA, Italy",170.0
668,The Beatles Pub,41.2014175,16.6071672,ChIJEeNFP5X5RxMRZ_ORuHwFAKo,Molfetta,4.2,"Lungomare M. Colonna, 112, 70056 Molfetta BA, Italy",149.0
669,Auld Dublin,41.2415652,16.4977974,ChIJOwP83AUHOBMR9I8KK7uS4oY,Bisceglie,4.3,"Via Silvio Pellico, 4, 70052 Bisceglie BT, Italy",290.0
670,Wood Stock Pub,41.2038492,16.601526,ChIJpe7_Hb_5RxMRgiMFuRVuP7w,Molfetta,4.5,"Piazza Giuseppe Garibaldi, 17, 70056 Molfetta BA, Italy",224.0
671,RED ROCK,41.1539931,16.4122877,ChIJ_UiQd2oPOBMRTmRkdOH59Ww,Corato,4.3,"Corso Cavour, 13, 70033 Corato BA, Italy",135.0
672,Too Beer,41.1529874,16.410905,ChIJRWP-g-wOOBMRbF7RFmivYvE,Corato,4.3,"Piazza di Vagno, 70033 Corato BA, Italy",316.0
673,Beer Condicio,41.2049885,16.5984273,ChIJER3vPLn5RxMR6_iRFVZfvo8,Molfetta,4.4,"Corso Dante Alighieri, 76, 70056 Molfetta BA, Italy",843.0
674,Pub - Pizzeria Strit Strit,41.2407064,16.5030522,ChIJuZJe0Q4HOBMRXazyLxe1KuE,Bisceglie,4.2,"Via Guglielmo Marconi, 11, 76011 Bisceglie BT, Italy",232.0
675,Il Sottano,41.1152751,16.487588,ChIJhWTiOCELOBMRIOf8EN2C3D4,Ruvo di Puglia,4.5,"Via Rondinella, 2, 70037 Ruvo di Puglia BA, Italy",251.0
676,Simple Birreria,41.2427205,16.5070487,ChIJV7Kgtw0HOBMRHTWCjTkVOn0,Bisceglie,4.3,"Via della Repubblica, 65, 76011 Bisceglie BT, Italy",1317.0
677,Swing Pub,41.1994377,16.6049227,ChIJ84EOI8D5RxMROzc1cBk3fVo,Molfetta,4.2,"Viale Pio XI, 21, 70056 Molfetta BA, Italy",350.0
678,Birreria River Beer - Trani,41.2773604,16.4151329,ChIJ2Y7tkqMFOBMRXBHcGuLzIrs,Trani,4.4,"Via Fiume, 22, 76125 Trani BT, Italy",113.0
679,Rocket King Pub - Corato,41.1568654,16.410212,ChIJe0IIve4OOBMR4OmJ2wyVpjo,Corato,4.2,"Piazza XX Settembre, 34, 70033 Corato BA, Italy",198.0
680,Copa Pan,41.2408572,16.5060232,ChIJp5M7Og8HOBMRaLJN2IsNP08,Bisceglie,4.4,"Via Cristoforo Colombo, 6, 76011 Bisceglie BT, Italy",682.0
681,Asterix Birreria,41.1973012,16.5974164,ChIJad43g8b5RxMRfmilGCrBmok,Molfetta,4.3,"C.so Umberto I, 132, 70056 Molfetta BA, Italy",239.0
682,Freestate Ristopub,41.117591,16.4849991,ChIJCWj5-dQLOBMR9iKYc5HvVeg,Ruvo di Puglia,4.3,"Via Dottor Nicola Boccuzzi, 5, 70037 Ruvo di Puglia BA, Italy",943.0
683,Baraka Pub&Wine Bar,41.2049715,16.5999034,ChIJx7quy775RxMRhEL9b-Igi18,Molfetta,4.0,"Via Amente, 44, 70056 Molfetta BA, Italy",311.0
684,"Al 28 - Grill, Pizza & Drink",41.2439489,16.5029003,ChIJFVIOW0kHOBMRzpsrukUJg1s,Bisceglie,4.5,"Via Maggior Vincenzo la, Via Maggiore la Notte, snc, 76011 Bisceglie BT, Italy",555.0
685,Wells Fargo Saloon,41.26723399999999,16.4365679,ChIJBUSb3R4EOBMRDPCph8u2LbQ,Trani,4.3,"Via Avvocato Vittorio Malcangi, 278, 76125 Trani BT, Italy",825.0
686,Fuori Posto,41.1301133,16.5404099,ChIJU3P6l8X3RxMRuDoVEDbYG0I,Terlizzi,4.6,"Corso Giuseppe Garibaldi, 121, 70038 Terlizzi BA, Italy",124.0
687,Trapetum,41.234537,16.5092166,ChIJlQPrnQoHOBMRxiedaKuHk0Q,Bisceglie,4.2,"Via Abate Bruni, 124, 76011 Bisceglie BT, Italy",1152.0
688,Red Brick 22,41.12438230000001,16.5498329,ChIJq7V7SUX3RxMRV0YI288EBkk,Terlizzi,4.0,"Via Spineto, 11/C, 70038 Terlizzi BA, Italy",127.0
689,SottoVoce,41.1532191,16.4112912,ChIJFbRbfusOOBMRJ9ZNf5VnhHc,Corato,4.5,"via Pozzo Candido, 29, Corato BA, Italy",85.0
690,Taverna Dei Suoni,41.27791999999999,16.4193399,ChIJq_TAcQ0EOBMRBXvZo4-ow9Y,Trani,4.4,"Vico Maria Ciardi, 22, 76125 Trani BT, Italy",124.0
691,Agape Bar,41.1537931,16.4101283,ChIJB87ofOwOOBMRsBX5hUlFzXQ,Corato,4.3,"Via Gisotti, 12, 70033 Corato BA, Italy",228.0
692,Antico Commercio,41.1543492,16.4118701,ChIJ03dHkesOOBMRFMF4jOQTOOk,Corato,4.6,"Corso Cavour, 40, 70033 Corato BA, Italy",232.0
693,Greta,41.1289073,16.5409699,ChIJ2fwBrTr3RxMR0SHzNy1rbsw,Terlizzi,4.4,"Corso Dante Alighieri, 110, 70038 Terlizzi BA, Italy",87.0
694,Classico - Bar all'Italiana | Ruvo di Puglia,41.11565360000001,16.4877048,ChIJizrMZuULOBMRPhHKbYI37r0,Ruvo di Puglia,4.5,"Corso Camillo Benso Conte di Cavour, 36, 70037 Ruvo di Puglia BA, Italy",78.0
695,Ghenos Risto Pub Pizzeria Corato,41.1578077,16.4086241,ChIJeTaQ8-4OOBMRwL0RBgcJzsc,Corato,4.3,"Via Ettore Fieramosca, 76, 70033 Corato BA, Italy",427.0
696,Pub Bari | Ex Salumeria Food & Beer,41.1629948,16.7525367,ChIJA2eLs7DlRxMRDpRs8zrgT9c,Bari,4.5,"Lungo Mare Colombo Cristoforo, 68, 70127 Bari BA, Italy",145.0
697,Librati,41.188059,16.6695826,ChIJRdBwxWb6RxMRccEDrF4D6hg,Giovinazzo,4.8,"Via Crocifisso, 10, 70054 Giovinazzo BA, Italy",145.0
698,LA RESACA,41.2054931,16.5880422,ChIJ7Z4_hv_5RxMRQ-FME4iCV5A,Molfetta,4.4,"Via Madonna dei Martiri, 124, 70056 Molfetta BA, Italy",241.0
699,Sun | Pub Bistrot,41.163408,16.7495819,ChIJR7a-MHPlRxMR_ssZhDRr4_g,Bari,3.3,"Largo di Santo Spirito Cristoforo Colombo, 142, 70127 Bari BA, Italy",38.0
700,Buns 50,41.12903319999999,16.5419704,ChIJrfJxOlb3RxMRjeN8UDtQRoA,Terlizzi,4.5,"Corso Dante Alighieri, 50, 70038 Terlizzi BA, Italy",147.0
701,Cibarìa,41.0514097,16.7106715,ChIJPzBUwGvzRxMROuqarDG6qbo,Palo del Colle,4.1,"Piazza Domenico Guaccero, 1, 70027 Palo del Colle BA, Italy",258.0
702,PinSami Molfetta,41.2023413,16.58858,ChIJ4dMUP8D5RxMR3kAikAji078,Molfetta,4.2,"Via Enrico Fermi, 13, 70056 Molfetta BA, Italy",78.0
703,Birreria Re Artù Steakhouse,41.2815334,16.4180844,ChIJYW-YpAwEOBMRd9R6j-EWe7Y,Trani,4.2,"Piazza Cesare Battisti, 3, 76125 Trani BT, Italy",740.0
704,Il Duca,41.188819,16.674842,ChIJ8yh8OGD6RxMRgV8u2KYV1qM,Giovinazzo,4.4,"Piazza Benedettine, 6, 70054 Giovinazzo BA, Italy",476.0
705,Pub & Pizza La Gioconda,41.236642,16.5032315,ChIJ-59X5_wHOBMRfV9A-9taGqU,Bisceglie,4.0,"Via Isonzo, 30, 76011 Bisceglie BT, Italy",125.0
706,Mavi Gaming Pub,41.241792,16.4878397,ChIJawy2DlcHOBMR07lbUGySq3g,Bisceglie,5.0,"Via degli Aragonesi, 10-12, 76011 Bisceglie BT, Italy",4.0
